[{"Name": "Walter Williams Clinic", "Description": "Specialist Medical Services", "Suburb": "Melbourne (CBD)", "latitude": -37.81451942, "longitude": 144.9684885, "Group": "Healthcare"}, {"Name": "Peter Battlay & Associates", "Description": "Specialist Medical Services", "Suburb": "Melbourne (CBD)", "latitude": -37.81383756, "longitude": 144.9733552, "Group": "Healthcare"}, {"Name": "Dr Masters & Associates", "Description": "Dental Services", "Suburb": "Melbourne (CBD)", "latitude": -37.81805666, "longitude": 144.964608, "Group": "Healthcare"}, {"Name": "Preferred Dental Care", "Description": "Dental Services", "Suburb": "Melbourne (CBD)", "latitude": -37.81805666, "longitude": 144.964608, "Group": "Healthcare"}, {"Name": "Breast Clinic", "Description": "Specialist Medical Services", "Suburb": "East Melbourne", "latitude": -37.80961024, "longitude": 144.9819236, "Group": "Healthcare"}, {"Name": "Bone Densiitometry", "Description": "Specialist Medical Services", "Suburb": "East Melbourne", "latitude": -37.80961024, "longitude": 144.9819236, "Group": "Healthcare"}, {"Name": "Colposcopy & Laser Clinc", "Description": "Specialist Medical Services", "Suburb": "East Melbourne", "latitude": -37.80961024, "longitude": 144.9819236, "Group": "Healthcare"}, {"Name": "Mens Health Clinic", "Description": "Specialist Medical Services", "Suburb": "East Melbourne", "latitude": -37.80961024, "longitude": 144.9819236, "Group": "Healthcare"}, {"Name": "Medical rooms", "Description": "Specialist Medical Services", "Suburb": "East Melbourne", "latitude": -37.80961024, "longitude": 144.9819236, "Group": "Healthcare"}, {"Name": "Day Oncology unit", "Description": "Specialist Medical Services", "Suburb": "East Melbourne", "latitude": -37.80961024, "longitude": 144.9819236, "Group": "Healthcare"}, {"Name": "Womens Health Clinic", "Description": "Specialist Medical Services", "Suburb": "East Melbourne", "latitude": -37.80961024, "longitude": 144.9819236, "Group": "Healthcare"}, {"Name": "Private Medical Suites", "Description": "Specialist Medical Services", "Suburb": "East Melbourne", "latitude": -37.80961024, "longitude": 144.9819236, "Group": "Healthcare"}, {"Name": "Prof Michael Green", "Description": "Specialist Medical Services", "Suburb": "East Melbourne", "latitude": -37.80961024, "longitude": 144.9819236, "Group": "Healthcare"}, {"Name": "Mr John P Collins", "Description": "Specialist Medical Services", "Suburb": "East Melbourne", "latitude": -37.80961024, "longitude": 144.9819236, "Group": "Healthcare"}, {"Name": "Bone Marrow Donor Institute", "Description": "Specialist Medical Services", "Suburb": "Parkville", "latitude": -37.79854141, "longitude": 144.9559628, "Group": "Healthcare"}, {"Name": "RMH Private Hospital", "Description": "Hospitals (except Psychiatric Hospitals)", "Suburb": "Parkville", "latitude": -37.79854141, "longitude": 144.9559628, "Group": "Healthcare"}, {"Name": "Lavrin & Lawrence Orthondontics", "Description": "Specialist Medical Services", "Suburb": "Melbourne (CBD)", "latitude": -37.81383756, "longitude": 144.9733552, "Group": "Healthcare"}, {"Name": "Russell's Collins St Pharmacy", "Description": "Specialist Medical Services", "Suburb": "Melbourne (CBD)", "latitude": -37.81516811, "longitude": 144.9698467, "Group": "Healthcare"}, {"Name": "Nina of Melbourne Rejuvenation Centre", "Description": "Other Health Care Services n.e.c.", "Suburb": "Melbourne (CBD)", "latitude": -37.81516811, "longitude": 144.9698467, "Group": "Healthcare"}, {"Name": "Coach Psych", "Description": "Specialist Medical Services", "Suburb": "North Melbourne", "latitude": -37.80367814, "longitude": 144.9430451, "Group": "Healthcare"}, {"Name": "Dr Philip Papa-Dental Surgeon Pty Ltd", "Description": "Dental Services", "Suburb": "Melbourne (Remainder)", "latitude": -37.84459479, "longitude": 144.9793123, "Group": "Healthcare"}, {"Name": "Dr David Treherne & Associates / Melbourne Dentist ", "Description": "Dental Services", "Suburb": "Melbourne (Remainder)", "latitude": -37.84459479, "longitude": 144.9793123, "Group": "Healthcare"}, {"Name": "Dr Denis Graeme Robertson /Prof Michael Oldmeadow/Dr Hugo Standish", "Description": "Specialist Medical Services", "Suburb": "Melbourne (Remainder)", "latitude": -37.84633685, "longitude": 144.9801503, "Group": "Healthcare"}, {"Name": "Reinhild Robertson Pty Ltd ", "Description": "Specialist Medical Services", "Suburb": "Melbourne (Remainder)", "latitude": -37.84633685, "longitude": 144.9801503, "Group": "Healthcare"}, {"Name": "R K S Conifer Consulting Pty Ltd", "Description": "Specialist Medical Services", "Suburb": "Melbourne (Remainder)", "latitude": -37.84633685, "longitude": 144.9801503, "Group": "Healthcare"}, {"Name": "Tong Kang Lee Chinese Medical Centre", "Description": "Specialist Medical Services", "Suburb": "Kensington", "latitude": -37.79451221, "longitude": 144.929051, "Group": "Healthcare"}, {"Name": "Dr Andrew Navakas", "Description": "Dental Services", "Suburb": "Kensington", "latitude": -37.79468955, "longitude": 144.9302269, "Group": "Healthcare"}, {"Name": "Workers Occupational Health Centre", "Description": "Specialist Medical Services", "Suburb": "Carlton", "latitude": -37.80643938, "longitude": 144.9664109, "Group": "Healthcare"}, {"Name": "Melbourne Ultrasound For Women", "Description": "Specialist Medical Services", "Suburb": "Carlton", "latitude": -37.80566982, "longitude": 144.9664413, "Group": "Healthcare"}, {"Name": "City Health Care", "Description": "Other Health Care Services n.e.c.", "Suburb": "Melbourne (CBD)", "latitude": -37.8123299, "longitude": 144.9654266, "Group": "Healthcare"}, {"Name": "Dr Peter Renou & Dr Susan Randle", "Description": "Specialist Medical Services", "Suburb": "East Melbourne", "latitude": -37.81280809, "longitude": 144.986237, "Group": "Healthcare"}, {"Name": "Dynamic Body Therapy", "Description": "Specialist Medical Services", "Suburb": "Melbourne (CBD)", "latitude": -37.81546466, "longitude": 144.9616774, "Group": "Healthcare"}, {"Name": "Ian A Joblin", "Description": "Other Health Care Services n.e.c.", "Suburb": "Melbourne (CBD)", "latitude": -37.81565401, "longitude": 144.9612988, "Group": "Healthcare"}, {"Name": "Sandra Watts", "Description": "Other Health Care Services n.e.c.", "Suburb": "Melbourne (CBD)", "latitude": -37.81565401, "longitude": 144.9612988, "Group": "Healthcare"}, {"Name": "HNA Pysio ", "Description": "Physiotherapy Services", "Suburb": "Melbourne (CBD)", "latitude": -37.8153709, "longitude": 144.9611919, "Group": "Healthcare"}, {"Name": "Downtown Dentures", "Description": "Dental Services", "Suburb": "Melbourne (CBD)", "latitude": -37.81805666, "longitude": 144.964608, "Group": "Healthcare"}, {"Name": "Dr M Wallin", "Description": "Specialist Medical Services", "Suburb": "Melbourne (CBD)", "latitude": -37.81322929, "longitude": 144.9619011, "Group": "Healthcare"}, {"Name": "Dr WE Gillies & Dr NL Ferguson", "Description": "Other Health Care Services n.e.c.", "Suburb": "Melbourne (CBD)", "latitude": -37.8139787, "longitude": 144.9708164, "Group": "Healthcare"}, {"Name": "Dr Susan Oliver", "Description": "Specialist Medical Services", "Suburb": "Melbourne (CBD)", "latitude": -37.8139787, "longitude": 144.9708164, "Group": "Healthcare"}, {"Name": "Lazarus, Mark Graham", "Description": "Specialist Medical Services", "Suburb": "Melbourne (CBD)", "latitude": -37.8139787, "longitude": 144.9708164, "Group": "Healthcare"}, {"Name": "Smile on Collins", "Description": "Specialist Medical Services", "Suburb": "Melbourne (CBD)", "latitude": -37.8139787, "longitude": 144.9708164, "Group": "Healthcare"}, {"Name": "Dr John Joseph McTeigue", "Description": "Specialist Medical Services", "Suburb": "Melbourne (CBD)", "latitude": -37.8139787, "longitude": 144.9708164, "Group": "Healthcare"}, {"Name": "Dr Peter A Scott", "Description": "Dental Services", "Suburb": "Melbourne (CBD)", "latitude": -37.81423688, "longitude": 144.9700079, "Group": "Healthcare"}, {"Name": "Dr Geoffrey J Pullen", "Description": "Dental Services", "Suburb": "Melbourne (CBD)", "latitude": -37.81423688, "longitude": 144.9700079, "Group": "Healthcare"}, {"Name": "Dr Richard Stark", "Description": "Specialist Medical Services", "Suburb": "Melbourne (CBD)", "latitude": -37.81383756, "longitude": 144.9733552, "Group": "Healthcare"}, {"Name": "Melbourne Skin Clinic", "Description": "Specialist Medical Services", "Suburb": "Melbourne (CBD)", "latitude": -37.81383756, "longitude": 144.9733552, "Group": "Healthcare"}, {"Name": "Dr Peter Robert Scott", "Description": "Specialist Medical Services", "Suburb": "Melbourne (CBD)", "latitude": -37.81383756, "longitude": 144.9733552, "Group": "Healthcare"}, {"Name": "Dr Isla Margaret Williams", "Description": "Specialist Medical Services", "Suburb": "Melbourne (CBD)", "latitude": -37.81383756, "longitude": 144.9733552, "Group": "Healthcare"}, {"Name": "Melbourne Vein Clinic", "Description": "Specialist Medical Services", "Suburb": "Melbourne (CBD)", "latitude": -37.81383756, "longitude": 144.9733552, "Group": "Healthcare"}, {"Name": "Women In Dentistry", "Description": "Dental Services", "Suburb": "Melbourne (CBD)", "latitude": -37.81383756, "longitude": 144.9733552, "Group": "Healthcare"}, {"Name": "Dr Peter F Glynn", "Description": "Dental Services", "Suburb": "Melbourne (CBD)", "latitude": -37.81383756, "longitude": 144.9733552, "Group": "Healthcare"}, {"Name": "Allergy Advice & Assessment Clinic", "Description": "Specialist Medical Services", "Suburb": "Melbourne (CBD)", "latitude": -37.81383756, "longitude": 144.9733552, "Group": "Healthcare"}, {"Name": "Russell Street Dental Surgery", "Description": "Dental Services", "Suburb": "Melbourne (CBD)", "latitude": -37.80966479, "longitude": 144.966972, "Group": "Healthcare"}, {"Name": "Dr Meng K Choy & Associates", "Description": "Dental Services", "Suburb": "Melbourne (CBD)", "latitude": -37.81339852, "longitude": 144.9653368, "Group": "Healthcare"}, {"Name": "Veronica Roberts & Cynthia R Davis", "Description": "Other Health Care Services n.e.c.", "Suburb": "Melbourne (CBD)", "latitude": -37.81451942, "longitude": 144.9684885, "Group": "Healthcare"}, {"Name": "Back In Motion", "Description": "Physiotherapy Services", "Suburb": "Docklands", "latitude": -37.81817241, "longitude": 144.947217, "Group": "Healthcare"}, {"Name": "Australian Red Cross", "Description": "Other Health Care Services n.e.c.", "Suburb": "Southbank", "latitude": -37.82548246, "longitude": 144.9620599, "Group": "Healthcare"}, {"Name": "Dr Allen Wong ", "Description": "Dental Services", "Suburb": "Melbourne (CBD)", "latitude": -37.81534394, "longitude": 144.968026, "Group": "Healthcare"}, {"Name": "Dr Peter Ross Hays", "Description": "Dental Services", "Suburb": "Melbourne (CBD)", "latitude": -37.81534394, "longitude": 144.968026, "Group": "Healthcare"}, {"Name": "College Square Medical Centre", "Description": "Specialist Medical Services", "Suburb": "Carlton", "latitude": -37.79271486, "longitude": 144.968653, "Group": "Healthcare"}, {"Name": "Kinesiology House", "Description": "Other Health Care Services n.e.c.", "Suburb": "Carlton", "latitude": -37.80152735, "longitude": 144.9693672, "Group": "Healthcare"}, {"Name": "ABNOW", "Description": "Specialist Medical Services", "Suburb": "Carlton", "latitude": -37.79971099, "longitude": 144.9698329, "Group": "Healthcare"}, {"Name": "East Melbourne Consultants", "Description": "Specialist Medical Services", "Suburb": "East Melbourne", "latitude": -37.81665385, "longitude": 144.9894625, "Group": "Healthcare"}, {"Name": "Dr Timothy Gale", "Description": "Specialist Medical Services", "Suburb": "Melbourne (Remainder)", "latitude": -37.84633685, "longitude": 144.9801503, "Group": "Healthcare"}, {"Name": "Ramsay Health Care", "Description": "Other Health Care Services n.e.c.", "Suburb": "Melbourne (Remainder)", "latitude": -37.83774553, "longitude": 144.9770428, "Group": "Healthcare"}, {"Name": "AMI Australia Holdings Pty Ltd ", "Description": "Specialist Medical Services", "Suburb": "Melbourne (Remainder)", "latitude": -37.83854242, "longitude": 144.9771931, "Group": "Healthcare"}, {"Name": "Nabenet", "Description": "Specialist Medical Services", "Suburb": "Melbourne (Remainder)", "latitude": -37.8373358, "longitude": 144.9767624, "Group": "Healthcare"}, {"Name": "Melbourne Neurosurgery", "Description": "Specialist Medical Services", "Suburb": "Parkville", "latitude": -37.77934306, "longitude": 144.9594949, "Group": "Healthcare"}, {"Name": "Skin And Cancer Foundation", "Description": "Other Health Care Services n.e.c.", "Suburb": "Carlton", "latitude": -37.80482996, "longitude": 144.9688204, "Group": "Healthcare"}, {"Name": "Dental Health Services Victoria", "Description": "Dental Services", "Suburb": "Parkville", "latitude": -37.78330248, "longitude": 144.9587658, "Group": "Healthcare"}, {"Name": "Melbourne Osteopathic Cliinc", "Description": "Specialist Medical Services", "Suburb": "Melbourne (CBD)", "latitude": -37.80895593, "longitude": 144.9631797, "Group": "Healthcare"}, {"Name": "Orygen Youth Health", "Description": "Other Health Care Services n.e.c.", "Suburb": "Parkville", "latitude": -37.7849288, "longitude": 144.9585626, "Group": "Healthcare"}, {"Name": "Melbourne Trauma Clinic", "Description": "Specialist Medical Services", "Suburb": "Melbourne (CBD)", "latitude": -37.81584476, "longitude": 144.9663304, "Group": "Healthcare"}, {"Name": "Central Kinesiology", "Description": "Specialist Medical Services", "Suburb": "Melbourne (CBD)", "latitude": -37.81314584, "longitude": 144.973096, "Group": "Healthcare"}, {"Name": "Wellness Care on Collins", "Description": "Specialist Medical Services", "Suburb": "Melbourne (CBD)", "latitude": -37.81314584, "longitude": 144.973096, "Group": "Healthcare"}, {"Name": "Dr Edward C Crawford", "Description": "Specialist Medical Services", "Suburb": "Melbourne (CBD)", "latitude": -37.81383756, "longitude": 144.9733552, "Group": "Healthcare"}, {"Name": "Louise Anderson Podiatry", "Description": "Specialist Medical Services", "Suburb": "Melbourne (CBD)", "latitude": -37.81430616, "longitude": 144.9726281, "Group": "Healthcare"}, {"Name": "Parkville Dental Surgery", "Description": "Dental Services", "Suburb": "Parkville", "latitude": -37.7952876, "longitude": 144.957563, "Group": "Healthcare"}, {"Name": "Anthony Holmes", "Description": "Specialist Medical Services", "Suburb": "Parkville", "latitude": -37.79614723, "longitude": 144.9574602, "Group": "Healthcare"}, {"Name": "Ms Kirstie MacGill", "Description": "Specialist Medical Services", "Suburb": "Parkville", "latitude": -37.79614723, "longitude": 144.9574602, "Group": "Healthcare"}, {"Name": "Kedorg Nominees Pty Ltd", "Description": "Specialist Medical Services", "Suburb": "Parkville", "latitude": -37.79614723, "longitude": 144.9574602, "Group": "Healthcare"}, {"Name": "Ambulance Service Victoria", "Description": "Ambulance Services", "Suburb": "West Melbourne (Residential)", "latitude": -37.80832284, "longitude": 144.9466005, "Group": "Healthcare"}, {"Name": "Mr George C Varnavides", "Description": "Dental Services", "Suburb": "Carlton", "latitude": -37.79683559, "longitude": 144.970328, "Group": "Healthcare"}, {"Name": "ABNOW", "Description": "Specialist Medical Services", "Suburb": "Carlton", "latitude": -37.79971099, "longitude": 144.9698329, "Group": "Healthcare"}, {"Name": "Kinesiology House", "Description": "Other Health Care Services n.e.c.", "Suburb": "Carlton", "latitude": -37.80152735, "longitude": 144.9693672, "Group": "Healthcare"}, {"Name": "L.H. Chinese Medical Clinic", "Description": "Specialist Medical Services", "Suburb": "Melbourne (CBD)", "latitude": -37.8125239, "longitude": 144.9648395, "Group": "Healthcare"}, {"Name": "Skin And Cancer Foundation", "Description": "Other Health Care Services n.e.c.", "Suburb": "Carlton", "latitude": -37.80482996, "longitude": 144.9688204, "Group": "Healthcare"}, {"Name": "Mr John Carey", "Description": "Dental Services", "Suburb": "Melbourne (CBD)", "latitude": -37.81528474, "longitude": 144.9661258, "Group": "Healthcare"}, {"Name": "Workers Occupational Health Centre", "Description": "Specialist Medical Services", "Suburb": "Carlton", "latitude": -37.80643938, "longitude": 144.9664109, "Group": "Healthcare"}, {"Name": "Kingsford Podiatry Group", "Description": "Specialist Medical Services", "Suburb": "Melbourne (CBD)", "latitude": -37.81553526, "longitude": 144.9642275, "Group": "Healthcare"}, {"Name": "Mr Stephen Rodney Hookey & Mr Alf Nastri", "Description": "Dental Services", "Suburb": "Melbourne (CBD)", "latitude": -37.81304887, "longitude": 144.9735468, "Group": "Healthcare"}, {"Name": "Dr Peter Varley", "Description": "Dental Services", "Suburb": "Melbourne (CBD)", "latitude": -37.81304887, "longitude": 144.9735468, "Group": "Healthcare"}, {"Name": "D-Spa (suite)", "Description": "Dental Services", "Suburb": "Melbourne (CBD)", "latitude": -37.81304887, "longitude": 144.9735468, "Group": "Healthcare"}, {"Name": "Gerald R Dickinson ", "Description": "Dental Services", "Suburb": "Melbourne (CBD)", "latitude": -37.81304887, "longitude": 144.9735468, "Group": "Healthcare"}, {"Name": "City Osteopathy", "Description": "Other Health Care Services n.e.c.", "Suburb": "Melbourne (CBD)", "latitude": -37.8163275, "longitude": 144.9666228, "Group": "Healthcare"}, {"Name": "Dr Peter Renou & Dr ML Murnane", "Description": "Specialist Medical Services", "Suburb": "East Melbourne", "latitude": -37.81280809, "longitude": 144.986237, "Group": "Healthcare"}, {"Name": "Dr June Louise Howqua", "Description": "Specialist Medical Services", "Suburb": "East Melbourne", "latitude": -37.81224821, "longitude": 144.9855114, "Group": "Healthcare"}, {"Name": "Dr Allen Wong ", "Description": "Dental Services", "Suburb": "Melbourne (CBD)", "latitude": -37.81534394, "longitude": 144.968026, "Group": "Healthcare"}, {"Name": "Peter Ross Hays", "Description": "Dental Services", "Suburb": "Melbourne (CBD)", "latitude": -37.81534394, "longitude": 144.968026, "Group": "Healthcare"}, {"Name": "Mental Health Services for Kids & Youth", "Description": "Psychiatric Hospitals", "Suburb": "Parkville", "latitude": -37.78084548, "longitude": 144.9477601, "Group": "Healthcare"}, {"Name": "Australian Red Cross", "Description": "Other Health Care Services n.e.c.", "Suburb": "Carlton", "latitude": -37.80258243, "longitude": 144.9614882, "Group": "Healthcare"}, {"Name": "Victorian Breast Screening Coordination Unit", "Description": "Other Health Care Services n.e.c.", "Suburb": "Carlton", "latitude": -37.80356075, "longitude": 144.9686149, "Group": "Healthcare"}, {"Name": "CS & HITB", "Description": "Other Health Care Services n.e.c.", "Suburb": "Carlton", "latitude": -37.79583503, "longitude": 144.968873, "Group": "Healthcare"}]
