[{"Name": "Kingsgate Private Hotel", "Description": "Accommodation", "Suburb": "Melbourne (CBD)", "latitude": -37.81708323, "longitude": 144.9555039, "Group": "Living"}, {"Name": "Savoy Park Plaza International", "Description": "Accommodation", "Suburb": "Melbourne (CBD)", "latitude": -37.81777221, "longitude": 144.9539293, "Group": "Living"}, {"Name": "The Victoria Hotel", "Description": "Accommodation", "Suburb": "Melbourne (CBD)", "latitude": -37.81434123, "longitude": 144.9675297, "Group": "Living"}, {"Name": "The Victoria Hotel", "Description": "Accommodation", "Suburb": "Melbourne (CBD)", "latitude": -37.81447237, "longitude": 144.9670943, "Group": "Living"}, {"Name": "Downtowner On Lygon", "Description": "Accommodation", "Suburb": "Carlton", "latitude": -37.80530329, "longitude": 144.9665747, "Group": "Living"}, {"Name": "Lygon Lodge Motel", "Description": "Accommodation", "Suburb": "Carlton", "latitude": -37.80191702, "longitude": 144.9671892, "Group": "Living"}, {"Name": "Quest South Yarra Mews", "Description": "Accommodation", "Suburb": "South Yarra", "latitude": -37.84476015, "longitude": 144.9847986, "Group": "Living"}, {"Name": "Aston Apartments", "Description": "Accommodation", "Suburb": "South Yarra", "latitude": -37.84001758, "longitude": 144.9858911, "Group": "Living"}, {"Name": "Deluxe Backpackers", "Description": "Accommodation", "Suburb": "South Yarra", "latitude": -37.83781627, "longitude": 144.9862861, "Group": "Living"}, {"Name": "The George Powlett Motel Apartments", "Description": "Accommodation", "Suburb": "East Melbourne", "latitude": -37.81550305, "longitude": 144.9857456, "Group": "Living"}, {"Name": "The Melbourne Connection Travellers Hostel", "Description": "Accommodation", "Suburb": "Melbourne (CBD)", "latitude": -37.81538904, "longitude": 144.9549691, "Group": "Living"}, {"Name": "City Corp Hostel", "Description": "Accommodation", "Suburb": "Melbourne (CBD)", "latitude": -37.81514931, "longitude": 144.9548584, "Group": "Living"}, {"Name": "Mr Royce George Amiet", "Description": "Accommodation", "Suburb": "Carlton", "latitude": -37.80047939, "longitude": 144.9711704, "Group": "Living"}, {"Name": "Serviced Apartments", "Description": "Accommodation", "Suburb": "Melbourne (CBD)", "latitude": -37.8203648, "longitude": 144.9559791, "Group": "Living"}, {"Name": "University City Apartments", "Description": "Accommodation", "Suburb": "Melbourne (CBD)", "latitude": -37.81244232, "longitude": 144.9603254, "Group": "Living"}, {"Name": "The Albany South Yarra", "Description": "Accommodation", "Suburb": "South Yarra", "latitude": -37.83699215, "longitude": 144.9797639, "Group": "Living"}, {"Name": "Elizabeth Hostel", "Description": "Accommodation", "Suburb": "Melbourne (CBD)", "latitude": -37.80735958, "longitude": 144.9604252, "Group": "Living"}, {"Name": "Hotel Ibis", "Description": "Accommodation", "Suburb": "Melbourne (CBD)", "latitude": -37.80713788, "longitude": 144.9614059, "Group": "Living"}, {"Name": "Punt Hill Manhattan Apartments", "Description": "Accommodation", "Suburb": "Melbourne (CBD)", "latitude": -37.81498387, "longitude": 144.9728049, "Group": "Living"}, {"Name": "Mercure Hotel", "Description": "Accommodation", "Suburb": "Melbourne (CBD)", "latitude": -37.81477015, "longitude": 144.9742052, "Group": "Living"}, {"Name": "The Friendly Backpacker", "Description": "Accommodation", "Suburb": "Melbourne (CBD)", "latitude": -37.81558196, "longitude": 144.9550289, "Group": "Living"}, {"Name": "Melbourne Marriott Hotel", "Description": "Accommodation", "Suburb": "Melbourne (CBD)", "latitude": -37.80987617, "longitude": 144.9691658, "Group": "Living"}, {"Name": "Quest Serviced Apartments", "Description": "Accommodation", "Suburb": "Melbourne (CBD)", "latitude": -37.81579532, "longitude": 144.9613635, "Group": "Living"}, {"Name": "Queensberry Hill - YHA Hostel", "Description": "Accommodation", "Suburb": "North Melbourne", "latitude": -37.80304782, "longitude": 144.9544971, "Group": "Living"}, {"Name": "Quest Docklands ", "Description": "Accommodation", "Suburb": "Docklands", "latitude": -37.81817241, "longitude": 144.947217, "Group": "Living"}, {"Name": "Travel Lodge", "Description": "Accommodation", "Suburb": "Southbank", "latitude": -37.82133203, "longitude": 144.9652401, "Group": "Living"}, {"Name": "Hotel Laureate", "Description": "Accommodation", "Suburb": "Parkville", "latitude": -37.78289944, "longitude": 144.958804, "Group": "Living"}, {"Name": "Oakford On Lygon Apartments", "Description": "Accommodation", "Suburb": "Carlton", "latitude": -37.80392308, "longitude": 144.9670244, "Group": "Living"}, {"Name": "The Arthouse", "Description": "Accommodation", "Suburb": "Carlton", "latitude": -37.80389369, "longitude": 144.9589387, "Group": "Living"}, {"Name": "Albert Park Manor", "Description": "Accommodation", "Suburb": "Melbourne (Remainder)", "latitude": -37.83599631, "longitude": 144.9761171, "Group": "Living"}, {"Name": "Royce On St Kilda Road", "Description": "Accommodation", "Suburb": "Melbourne (Remainder)", "latitude": -37.83506751, "longitude": 144.9755139, "Group": "Living"}, {"Name": "The Ramada Inn", "Description": "Accommodation", "Suburb": "Parkville", "latitude": -37.77944838, "longitude": 144.959168, "Group": "Living"}, {"Name": "Corpus Christi College", "Description": "Accommodation", "Suburb": "Carlton", "latitude": -37.80256875, "longitude": 144.9688779, "Group": "Living"}, {"Name": "Taverns of Victoria Pty Ltd", "Description": "Accommodation", "Suburb": "Melbourne (CBD)", "latitude": -37.81563788, "longitude": 144.9682892, "Group": "Living"}, {"Name": "International House College", "Description": "Accommodation", "Suburb": "Parkville", "latitude": -37.78859465, "longitude": 144.958117, "Group": "Living"}, {"Name": "The Sebel Melbourne", "Description": "Accommodation", "Suburb": "Melbourne (CBD)", "latitude": -37.81666775, "longitude": 144.9610454, "Group": "Living"}, {"Name": "Corpus Christi College", "Description": "Accommodation", "Suburb": "Carlton", "latitude": -37.80256875, "longitude": 144.9688779, "Group": "Living"}, {"Name": "Exford Hotel", "Description": "Accommodation", "Suburb": "Melbourne (CBD)", "latitude": -37.81179179, "longitude": 144.9673406, "Group": "Living"}, {"Name": "Causeway Inn", "Description": "Accommodation", "Suburb": "Melbourne (CBD)", "latitude": -37.8143226, "longitude": 144.9641605, "Group": "Living"}, {"Name": "Global Backpackers", "Description": "Accommodation", "Suburb": "North Melbourne", "latitude": -37.80593327, "longitude": 144.9585875, "Group": "Living"}, {"Name": "City Scene Backpackers", "Description": "Accommodation", "Suburb": "North Melbourne", "latitude": -37.80396968, "longitude": 144.9557455, "Group": "Living"}, {"Name": "International House College", "Description": "Accommodation", "Suburb": "Parkville", "latitude": -37.78859465, "longitude": 144.958117, "Group": "Living"}, {"Name": "Whitley College", "Description": "Accommodation", "Suburb": "Parkville", "latitude": -37.78723827, "longitude": 144.958282, "Group": "Living"}, {"Name": "Urban Central Accomodation", "Description": "Accommodation", "Suburb": "Southbank", "latitude": -37.82783816, "longitude": 144.9573539, "Group": "Living"}, {"Name": "Aston Apartments", "Description": "Accommodation", "Suburb": "South Yarra", "latitude": -37.84001758, "longitude": 144.9858911, "Group": "Living"}, {"Name": "Deluxe Backpackers", "Description": "Accommodation", "Suburb": "South Yarra", "latitude": -37.83781627, "longitude": 144.9862861, "Group": "Living"}, {"Name": "Quest South Yarra Mews", "Description": "Accommodation", "Suburb": "South Yarra", "latitude": -37.84476015, "longitude": 144.9847986, "Group": "Living"}, {"Name": "The George Powlett Motel Apartments", "Description": "Accommodation", "Suburb": "East Melbourne", "latitude": -37.81550305, "longitude": 144.9857456, "Group": "Living"}, {"Name": "Hotel Sophia", "Description": "Accommodation", "Suburb": "Melbourne (CBD)", "latitude": -37.81367535, "longitude": 144.9541999, "Group": "Living"}, {"Name": "Treasury Motor Lodge", "Description": "Accommodation", "Suburb": "East Melbourne", "latitude": -37.81087365, "longitude": 144.9857286, "Group": "Living"}, {"Name": "Magnolia Court Boutique Hotel", "Description": "Accommodation", "Suburb": "East Melbourne", "latitude": -37.81337468, "longitude": 144.9853031, "Group": "Living"}, {"Name": "St Arnaud Guest House", "Description": "Accommodation", "Suburb": "South Yarra", "latitude": -37.83522478, "longitude": 144.9820125, "Group": "Living"}, {"Name": "The Hatton Hotel", "Description": "Accommodation", "Suburb": "South Yarra", "latitude": -37.83595338, "longitude": 144.981705, "Group": "Living"}, {"Name": "Dalgety Inn", "Description": "Accommodation", "Suburb": "South Yarra", "latitude": -37.83622268, "longitude": 144.9816508, "Group": "Living"}, {"Name": "Kingsgate Private Hotel", "Description": "Accommodation", "Suburb": "Melbourne (CBD)", "latitude": -37.81708323, "longitude": 144.9555039, "Group": "Living"}, {"Name": "Savoy Park Plaza International", "Description": "Accommodation", "Suburb": "Melbourne (CBD)", "latitude": -37.81777221, "longitude": 144.9539293, "Group": "Living"}, {"Name": "Adelphi Hotel", "Description": "Accommodation", "Suburb": "Melbourne (CBD)", "latitude": -37.81635789, "longitude": 144.9683751, "Group": "Living"}, {"Name": "Oakford Gordon Towers", "Description": "Accommodation", "Suburb": "Melbourne (CBD)", "latitude": -37.81000862, "longitude": 144.9708995, "Group": "Living"}, {"Name": "All Seasons Crossley Hotel", "Description": "Accommodation", "Suburb": "Melbourne (CBD)", "latitude": -37.81101377, "longitude": 144.9711092, "Group": "Living"}, {"Name": "City Limits Motel", "Description": "Accommodation", "Suburb": "Melbourne (CBD)", "latitude": -37.81044688, "longitude": 144.9718106, "Group": "Living"}, {"Name": "Lygon Lodge Motel", "Description": "Accommodation", "Suburb": "Carlton", "latitude": -37.80191702, "longitude": 144.9671892, "Group": "Living"}, {"Name": "City Centre Private Hotel", "Description": "Accommodation", "Suburb": "Melbourne (CBD)", "latitude": -37.81244283, "longitude": 144.9725615, "Group": "Living"}, {"Name": "Windsor Hotel", "Description": "Accommodation", "Suburb": "Melbourne (CBD)", "latitude": -37.81199351, "longitude": 144.9729245, "Group": "Living"}, {"Name": "Stamford Plaza Hotel", "Description": "Accommodation", "Suburb": "Melbourne (CBD)", "latitude": -37.81354777, "longitude": 144.9700291, "Group": "Living"}, {"Name": "Hotel Bakpak", "Description": "Accommodation", "Suburb": "Melbourne (CBD)", "latitude": -37.80895967, "longitude": 144.9591538, "Group": "Living"}, {"Name": "Saville Park Suites", "Description": "Accommodation", "Suburb": "Melbourne (CBD)", "latitude": -37.8078604, "longitude": 144.9680267, "Group": "Living"}, {"Name": "City Scene Backpackers", "Description": "Accommodation", "Suburb": "North Melbourne", "latitude": -37.80396968, "longitude": 144.9557455, "Group": "Living"}, {"Name": "Downtowner On Lygon", "Description": "Accommodation", "Suburb": "Carlton", "latitude": -37.80530329, "longitude": 144.9665747, "Group": "Living"}, {"Name": "Club NewQuay", "Description": "Accommodation", "Suburb": "Docklands", "latitude": -37.81460533, "longitude": 144.9412614, "Group": "Living"}, {"Name": "Darling Towers serviced Apartments", "Description": "Accommodation", "Suburb": "Melbourne (CBD)", "latitude": -37.81602805, "longitude": 144.9660881, "Group": "Living"}, {"Name": "The Victoria Hotel", "Description": "Accommodation", "Suburb": "Melbourne (CBD)", "latitude": -37.81434123, "longitude": 144.9675297, "Group": "Living"}, {"Name": "The Victoria Hotel", "Description": "Accommodation", "Suburb": "Melbourne (CBD)", "latitude": -37.81447237, "longitude": 144.9670943, "Group": "Living"}, {"Name": "Oakford Australia", "Description": "Accommodation", "Suburb": "Melbourne (CBD)", "latitude": -37.81479918, "longitude": 144.9674537, "Group": "Living"}, {"Name": "Metro Apartments Melbourne", "Description": "Accommodation", "Suburb": "Melbourne (CBD)", "latitude": -37.81642893, "longitude": 144.9605225, "Group": "Living"}, {"Name": "Equinox Group of Hotels", "Description": "Accommodation", "Suburb": "East Melbourne", "latitude": -37.81824522, "longitude": 144.9801789, "Group": "Living"}, {"Name": "Metro Inn", "Description": "Accommodation", "Suburb": "East Melbourne", "latitude": -37.81796562, "longitude": 144.9782701, "Group": "Living"}, {"Name": "Flag Choice Hotels", "Description": "Accommodation", "Suburb": "East Melbourne", "latitude": -37.81702207, "longitude": 144.9792726, "Group": "Living"}, {"Name": "Hotel Y ", "Description": "Accommodation", "Suburb": "Melbourne (CBD)", "latitude": -37.80750344, "longitude": 144.9596331, "Group": "Living"}, {"Name": "Langham Hotel Melbourne", "Description": "Accommodation", "Suburb": "Southbank", "latitude": -37.82066923, "longitude": 144.9662623, "Group": "Living"}, {"Name": "Queensberry Hill - YHA Hostel", "Description": "Accommodation", "Suburb": "North Melbourne", "latitude": -37.80304782, "longitude": 144.9544971, "Group": "Living"}, {"Name": "East Melbourne Apartment Hotel", "Description": "Accommodation", "Suburb": "East Melbourne", "latitude": -37.81493895, "longitude": 144.9895432, "Group": "Living"}, {"Name": "Ascot Private Hotel", "Description": "Accommodation", "Suburb": "East Melbourne", "latitude": -37.81646996, "longitude": 144.9898797, "Group": "Living"}, {"Name": "Millhayes Apartments", "Description": "Accommodation", "Suburb": "East Melbourne", "latitude": -37.81615457, "longitude": 144.9898903, "Group": "Living"}, {"Name": "Miami Motor Inn", "Description": "Accommodation", "Suburb": "West Melbourne (Residential)", "latitude": -37.80609472, "longitude": 144.9485939, "Group": "Living"}, {"Name": "Carlton Student Accommodation", "Description": "Accommodation", "Suburb": "Carlton", "latitude": -37.80042527, "longitude": 144.9663268, "Group": "Living"}, {"Name": "Grattan House", "Description": "Accommodation", "Suburb": "Carlton", "latitude": -37.80148823, "longitude": 144.9659077, "Group": "Living"}, {"Name": "Georgian Court Bed & Breakfast", "Description": "Accommodation", "Suburb": "East Melbourne", "latitude": -37.81602928, "longitude": 144.9893546, "Group": "Living"}, {"Name": "Uni Lodge On Flinders", "Description": "Accommodation", "Suburb": "Melbourne (CBD)", "latitude": -37.81733219, "longitude": 144.9663532, "Group": "Living"}, {"Name": "Park Squire Motor Inn", "Description": "Accommodation", "Suburb": "Parkville", "latitude": -37.788491, "longitude": 144.9422866, "Group": "Living"}, {"Name": "Park Squire", "Description": "Accommodation", "Suburb": "Parkville", "latitude": -37.788491, "longitude": 144.9422866, "Group": "Living"}, {"Name": "The Chifley On Flemington", "Description": "Accommodation", "Suburb": "North Melbourne", "latitude": -37.80140031, "longitude": 144.9558713, "Group": "Living"}, {"Name": "The Paramount Apartments", "Description": "Accommodation", "Suburb": "Melbourne (CBD)", "latitude": -37.81170307, "longitude": 144.9697778, "Group": "Living"}, {"Name": "Arden Motel", "Description": "Accommodation", "Suburb": "North Melbourne", "latitude": -37.8015803, "longitude": 144.9521576, "Group": "Living"}, {"Name": "Downtowner On Lygon", "Description": "Accommodation", "Suburb": "Carlton", "latitude": -37.80530329, "longitude": 144.9665747, "Group": "Living"}, {"Name": "Fairfax Quest House", "Description": "Accommodation", "Suburb": "Melbourne (CBD)", "latitude": -37.81556194, "longitude": 144.9615306, "Group": "Living"}, {"Name": "Quest Serviced Apartments", "Description": "Accommodation", "Suburb": "Melbourne (CBD)", "latitude": -37.81579532, "longitude": 144.9613635, "Group": "Living"}, {"Name": "Quay West Suites Melbourne Mirvac", "Description": "Accommodation", "Suburb": "Southbank", "latitude": -37.82038777, "longitude": 144.9671147, "Group": "Living"}, {"Name": "Hotel Causeway", "Description": "Accommodation", "Suburb": "Melbourne (CBD)", "latitude": -37.81490375, "longitude": 144.9653693, "Group": "Living"}, {"Name": "Clarion Suites Gateway", "Description": "Accommodation", "Suburb": "Melbourne (CBD)", "latitude": -37.81943285, "longitude": 144.9595106, "Group": "Living"}, {"Name": "Mr Royce George Amiet", "Description": "Accommodation", "Suburb": "Carlton", "latitude": -37.80047939, "longitude": 144.9711704, "Group": "Living"}, {"Name": "Mercure Welcome Hotel", "Description": "Accommodation", "Suburb": "Melbourne (CBD)", "latitude": -37.81288667, "longitude": 144.9646469, "Group": "Living"}, {"Name": "Mercure Grand Hotel on Swanston", "Description": "Accommodation", "Suburb": "Melbourne (CBD)", "latitude": -37.81309229, "longitude": 144.9649993, "Group": "Living"}, {"Name": "Islanders Place", "Description": "Accommodation", "Suburb": "East Melbourne", "latitude": -37.81644885, "longitude": 144.988582, "Group": "Living"}, {"Name": "City Square Motel", "Description": "Accommodation", "Suburb": "Melbourne (CBD)", "latitude": -37.81603393, "longitude": 144.9664899, "Group": "Living"}, {"Name": "Hilton Hotels of Australia (Melbourne) Pty Ltd", "Description": "Accommodation", "Suburb": "East Melbourne", "latitude": -37.81582277, "longitude": 144.9834989, "Group": "Living"}, {"Name": "G Apartments", "Description": "Accommodation", "Suburb": "East Melbourne", "latitude": -37.81676291, "longitude": 144.9795714, "Group": "Living"}, {"Name": "Hilton", "Description": "Accommodation", "Suburb": "East Melbourne", "latitude": -37.81582277, "longitude": 144.9834989, "Group": "Living"}, {"Name": "Punt Hill Apartments", "Description": "Accommodation", "Suburb": "Melbourne (CBD)", "latitude": -37.81710105, "longitude": 144.9654844, "Group": "Living"}, {"Name": "TravelAndLive", "Description": "Accommodation", "Suburb": "Melbourne (CBD)", "latitude": -37.81791923, "longitude": 144.9552838, "Group": "Living"}]
