[{"Name": "Melbourne Bicycle Tour Club", "Description": "Sports and Physical Recreation Clubs and Sports Professionals", "Suburb": "Carlton", "latitude": -37.80643938, "longitude": 144.9664109, "Group": "Sports and Physical Activities"}, {"Name": "Mangala Studios of Yoga & Creative Dance", "Description": "Sports and Physical Recreation Instruction", "Suburb": "Carlton", "latitude": -37.80095911, "longitude": 144.9671991, "Group": "Sports and Physical Activities"}, {"Name": "Princes Park Bowling Club", "Description": "Sports and Physical Recreation Venues, Grounds and Facilities Operation", "Suburb": "Carlton", "latitude": -37.78509079, "longitude": 144.9613973, "Group": "Sports and Physical Activities"}, {"Name": "Princes Hill Tennis Club", "Description": "Sports and Physical Recreation Venues, Grounds and Facilities Operation", "Suburb": "Carlton", "latitude": -37.78509079, "longitude": 144.9613973, "Group": "Sports and Physical Activities"}, {"Name": "The Carlton Cricket And Football Social Club", "Description": "Sports and Physical Recreation Clubs and Sports Professionals", "Suburb": "Carlton", "latitude": -37.78509079, "longitude": 144.9613973, "Group": "Sports and Physical Activities"}, {"Name": "Zenshin Karate", "Description": "Sports and Physical Recreation Instruction", "Suburb": "Melbourne (CBD)", "latitude": -37.80838541, "longitude": 144.958272, "Group": "Sports and Physical Activities"}, {"Name": "Cue City", "Description": "Sports and Physical Recreation Venues, Grounds and Facilities Operation", "Suburb": "Melbourne (CBD)", "latitude": -37.81332876, "longitude": 144.9648168, "Group": "Sports and Physical Activities"}, {"Name": "Tennis Australia", "Description": "Sports and Physical Recreation Clubs and Sports Professionals", "Suburb": "Melbourne (Remainder)", "latitude": -37.82181585, "longitude": 144.9803771, "Group": "Sports and Physical Activities"}, {"Name": "Melbourne & Olympic Parks Trust", "Description": "Sports and Physical Recreation Venues, Grounds and Facilities Operation", "Suburb": "Melbourne (Remainder)", "latitude": -37.82181585, "longitude": 144.9803771, "Group": "Sports and Physical Activities"}, {"Name": "Melbourne Stadiums", "Description": "Sports and Physical Recreation Venues, Grounds and Facilities Operation", "Suburb": "Docklands", "latitude": -37.81656591, "longitude": 144.9475776, "Group": "Sports and Physical Activities"}, {"Name": "AFL", "Description": "Sports and Physical Recreation Clubs and Sports Professionals", "Suburb": "Docklands", "latitude": -37.81656591, "longitude": 144.9475776, "Group": "Sports and Physical Activities"}, {"Name": "Royal Park Tennis Club", "Description": "Sports and Physical Recreation Venues, Grounds and Facilities Operation", "Suburb": "Parkville", "latitude": -37.78603284, "longitude": 144.9508625, "Group": "Sports and Physical Activities"}, {"Name": "North Park Tennis Club", "Description": "Sports and Physical Recreation Venues, Grounds and Facilities Operation", "Suburb": "Parkville", "latitude": -37.78603284, "longitude": 144.9508625, "Group": "Sports and Physical Activities"}, {"Name": "State Netball & Hockey Centre", "Description": "Sports and Physical Recreation Venues, Grounds and Facilities Operation", "Suburb": "Parkville", "latitude": -37.78541878, "longitude": 144.947632, "Group": "Sports and Physical Activities"}, {"Name": "Lord Wellington Club", "Description": "Sports and Physical Recreation Clubs and Sports Professionals", "Suburb": "East Melbourne", "latitude": -37.81715651, "longitude": 144.9774098, "Group": "Sports and Physical Activities"}, {"Name": "City of Melbourne", "Description": "Sports and Physical Recreation Venues, Grounds and Facilities Operation", "Suburb": "Carlton", "latitude": -37.79337946, "longitude": 144.971808, "Group": "Sports and Physical Activities"}, {"Name": "Melbourne Bicycle Tour Club", "Description": "Sports and Physical Recreation Clubs and Sports Professionals", "Suburb": "Carlton", "latitude": -37.80643938, "longitude": 144.9664109, "Group": "Sports and Physical Activities"}, {"Name": "Mangala Studios of Yoga & Creative Dance", "Description": "Sports and Physical Recreation Instruction", "Suburb": "Carlton", "latitude": -37.80095911, "longitude": 144.9671991, "Group": "Sports and Physical Activities"}, {"Name": "The Carlton Cricket And Football Social Club", "Description": "Sports and Physical Recreation Clubs and Sports Professionals", "Suburb": "Carlton", "latitude": -37.78509079, "longitude": 144.9613973, "Group": "Sports and Physical Activities"}, {"Name": "Royal Park Golf Club", "Description": "Sports and Physical Recreation Clubs and Sports Professionals", "Suburb": "Parkville", "latitude": -37.78603284, "longitude": 144.9508625, "Group": "Sports and Physical Activities"}, {"Name": "East Melbourne Tennis Centre", "Description": "Sports and Physical Recreation Venues, Grounds and Facilities Operation", "Suburb": "East Melbourne", "latitude": -37.81143226, "longitude": 144.9873669, "Group": "Sports and Physical Activities"}, {"Name": "State Netball & Hockey Centre", "Description": "Sports and Physical Recreation Venues, Grounds and Facilities Operation", "Suburb": "Parkville", "latitude": -37.78541878, "longitude": 144.947632, "Group": "Sports and Physical Activities"}, {"Name": "Melbourne City Baths", "Description": "Sports and Physical Recreation Venues, Grounds and Facilities Operation", "Suburb": "Melbourne (CBD)", "latitude": -37.80700694, "longitude": 144.9633863, "Group": "Sports and Physical Activities"}, {"Name": "Mangala Studios of Yoga & Creative Dance", "Description": "Sports and Physical Recreation Instruction", "Suburb": "Carlton", "latitude": -37.80095911, "longitude": 144.9671991, "Group": "Sports and Physical Activities"}, {"Name": "Melbourne Bicycle Tour Club", "Description": "Sports and Physical Recreation Clubs and Sports Professionals", "Suburb": "Carlton", "latitude": -37.80643938, "longitude": 144.9664109, "Group": "Sports and Physical Activities"}, {"Name": "Melbourne Martial Arts Academy", "Description": "Sports and Physical Recreation Instruction", "Suburb": "Melbourne (CBD)", "latitude": -37.81953163, "longitude": 144.9622868, "Group": "Sports and Physical Activities"}, {"Name": "Richmond Football Club Marketing Department", "Description": "Sports and Physical Recreation Clubs and Sports Professionals", "Suburb": "East Melbourne", "latitude": -37.81786801, "longitude": 144.9791267, "Group": "Sports and Physical Activities"}, {"Name": "Melbourne International Kart Complex", "Description": "Sports and Physical Recreation Venues, Grounds and Facilities Operation", "Suburb": "Port Melbourne", "latitude": -37.83084514, "longitude": 144.91345, "Group": "Sports and Physical Activities"}, {"Name": "Melbourne International Shooting Club", "Description": "Sports and Physical Recreation Venues, Grounds and Facilities Operation", "Suburb": "Port Melbourne", "latitude": -37.82958492, "longitude": 144.9134164, "Group": "Sports and Physical Activities"}, {"Name": "Pier 35 Marina Office", "Description": "Sports and Physical Recreation Venues, Grounds and Facilities Operation", "Suburb": "Port Melbourne", "latitude": -37.82483593, "longitude": 144.9052161, "Group": "Sports and Physical Activities"}, {"Name": "Richmond Football Club", "Description": "Sports and Physical Recreation Clubs and Sports Professionals", "Suburb": "East Melbourne", "latitude": -37.81951091, "longitude": 144.9856579, "Group": "Sports and Physical Activities"}, {"Name": "Melbourne Cricket Ground", "Description": "Sports and Physical Recreation Venues, Grounds and Facilities Operation", "Suburb": "East Melbourne", "latitude": -37.81992883, "longitude": 144.9832828, "Group": "Sports and Physical Activities"}, {"Name": "Melbourne Football Club", "Description": "Sports and Physical Recreation Clubs and Sports Professionals", "Suburb": "East Melbourne", "latitude": -37.81992883, "longitude": 144.9832828, "Group": "Sports and Physical Activities"}, {"Name": "Football Victoria", "Description": "Sports and Physical Recreation Clubs and Sports Professionals", "Suburb": "East Melbourne", "latitude": -37.81992883, "longitude": 144.9832828, "Group": "Sports and Physical Activities"}, {"Name": "Lord Wellington Club", "Description": "Sports and Physical Recreation Clubs and Sports Professionals", "Suburb": "East Melbourne", "latitude": -37.81715651, "longitude": 144.9774098, "Group": "Sports and Physical Activities"}, {"Name": "Oki Do Yoga Centre", "Description": "Sports and Physical Recreation Instruction", "Suburb": "Carlton", "latitude": -37.79537457, "longitude": 144.9673936, "Group": "Sports and Physical Activities"}, {"Name": "Carlton Gardens Tennis Club", "Description": "Sports and Physical Recreation Venues, Grounds and Facilities Operation", "Suburb": "Carlton", "latitude": -37.8019639, "longitude": 144.9719524, "Group": "Sports and Physical Activities"}, {"Name": "Carlton Baths Community Centre", "Description": "Sports and Physical Recreation Venues, Grounds and Facilities Operation", "Suburb": "Carlton", "latitude": -37.79337946, "longitude": 144.971808, "Group": "Sports and Physical Activities"}, {"Name": "Fit 2B Australia ", "Description": "Sports and Physical Recreation Instruction", "Suburb": "Melbourne (CBD)", "latitude": -37.81467989, "longitude": 144.9602243, "Group": "Sports and Physical Activities"}, {"Name": "Melbourne Storm Rugby League Club", "Description": "Sports and Physical Recreation Clubs and Sports Professionals", "Suburb": "Melbourne (Remainder)", "latitude": -37.82487806, "longitude": 144.9823854, "Group": "Sports and Physical Activities"}, {"Name": "Oki Do Yoga Centre", "Description": "Sports and Physical Recreation Instruction", "Suburb": "Carlton", "latitude": -37.79537457, "longitude": 144.9673936, "Group": "Sports and Physical Activities"}, {"Name": "Riverside Skate Park", "Description": "Sports and Physical Recreation Venues, Grounds and Facilities Operation", "Suburb": "Melbourne (Remainder)", "latitude": -37.82065979, "longitude": 144.9721254, "Group": "Sports and Physical Activities"}, {"Name": "Tennis Australia", "Description": "Sports and Physical Recreation Clubs and Sports Professionals", "Suburb": "Melbourne (Remainder)", "latitude": -37.82181585, "longitude": 144.9803771, "Group": "Sports and Physical Activities"}, {"Name": "National Tennis Centre Trust", "Description": "Sports and Physical Recreation Venues, Grounds and Facilities Operation", "Suburb": "Melbourne (Remainder)", "latitude": -37.82181585, "longitude": 144.9803771, "Group": "Sports and Physical Activities"}, {"Name": "North Melbourne Football Club Social Club", "Description": "Sports and Physical Recreation Clubs and Sports Professionals", "Suburb": "North Melbourne", "latitude": -37.79905531, "longitude": 144.9413118, "Group": "Sports and Physical Activities"}, {"Name": "Tennis Victoria", "Description": "Sports and Physical Recreation Clubs and Sports Professionals", "Suburb": "Melbourne (Remainder)", "latitude": -37.82181585, "longitude": 144.9803771, "Group": "Sports and Physical Activities"}, {"Name": "Kingpin Bowling", "Description": "Sports and Physical Recreation Venues, Grounds and Facilities Operation", "Suburb": "Southbank", "latitude": -37.82312164, "longitude": 144.9586604, "Group": "Sports and Physical Activities"}, {"Name": "West Coast Eagles", "Description": "Sports and Physical Recreation Clubs and Sports Professionals", "Suburb": "North Melbourne", "latitude": -37.79895071, "longitude": 144.9533473, "Group": "Sports and Physical Activities"}, {"Name": "Docklands Yacht Club ", "Description": "Sports and Physical Recreation Clubs and Sports Professionals", "Suburb": "Docklands", "latitude": -37.82034076, "longitude": 144.938876, "Group": "Sports and Physical Activities"}, {"Name": "Melbourne Outrigger Canoe Club", "Description": "Sports and Physical Recreation Clubs and Sports Professionals", "Suburb": "Docklands", "latitude": -37.82034076, "longitude": 144.938876, "Group": "Sports and Physical Activities"}, {"Name": "Victorian Dragonboat Association", "Description": "Sports and Physical Recreation Clubs and Sports Professionals", "Suburb": "Docklands", "latitude": -37.82034076, "longitude": 144.938876, "Group": "Sports and Physical Activities"}, {"Name": "Port Adelaide Football Club", "Description": "Sports and Physical Recreation Clubs and Sports Professionals", "Suburb": "Melbourne (CBD)", "latitude": -37.81170307, "longitude": 144.9697778, "Group": "Sports and Physical Activities"}, {"Name": "North Melbourne Football Club", "Description": "Sports and Physical Recreation Clubs and Sports Professionals", "Suburb": "North Melbourne", "latitude": -37.79905531, "longitude": 144.9413118, "Group": "Sports and Physical Activities"}, {"Name": "Flagstaff Gardens Tennis Club", "Description": "Sports and Physical Recreation Venues, Grounds and Facilities Operation", "Suburb": "West Melbourne (Residential)", "latitude": -37.81045581, "longitude": 144.9544344, "Group": "Sports and Physical Activities"}, {"Name": "City of Melbourne Bowls Club", "Description": "Sports and Physical Recreation Venues, Grounds and Facilities Operation", "Suburb": "West Melbourne (Residential)", "latitude": -37.81045581, "longitude": 144.9544344, "Group": "Sports and Physical Activities"}, {"Name": "State Netball & Hockey Centre", "Description": "Sports and Physical Recreation Venues, Grounds and Facilities Operation", "Suburb": "Parkville", "latitude": -37.78541878, "longitude": 144.947632, "Group": "Sports and Physical Activities"}, {"Name": "East Melbourne Tennis Centre", "Description": "Sports and Physical Recreation Venues, Grounds and Facilities Operation", "Suburb": "East Melbourne", "latitude": -37.81143226, "longitude": 144.9873669, "Group": "Sports and Physical Activities"}, {"Name": "Richmond Football Club", "Description": "Sports and Physical Recreation Clubs and Sports Professionals", "Suburb": "East Melbourne", "latitude": -37.81951091, "longitude": 144.9856579, "Group": "Sports and Physical Activities"}, {"Name": "Melbourne Football Club", "Description": "Sports and Physical Recreation Clubs and Sports Professionals", "Suburb": "East Melbourne", "latitude": -37.81992883, "longitude": 144.9832828, "Group": "Sports and Physical Activities"}, {"Name": "Football Victoria", "Description": "Sports and Physical Recreation Clubs and Sports Professionals", "Suburb": "East Melbourne", "latitude": -37.81992883, "longitude": 144.9832828, "Group": "Sports and Physical Activities"}, {"Name": "Charltons Entertainment Complex", "Description": "Sports and Physical Recreation Venues, Grounds and Facilities Operation", "Suburb": "Melbourne (CBD)", "latitude": -37.81206119, "longitude": 144.9685359, "Group": "Sports and Physical Activities"}, {"Name": "Melbourne Martial Arts Academy", "Description": "Sports and Physical Recreation Instruction", "Suburb": "Melbourne (CBD)", "latitude": -37.81953163, "longitude": 144.9622868, "Group": "Sports and Physical Activities"}, {"Name": "Melbourne City Baths", "Description": "Sports and Physical Recreation Venues, Grounds and Facilities Operation", "Suburb": "Melbourne (CBD)", "latitude": -37.80700694, "longitude": 144.9633863, "Group": "Sports and Physical Activities"}, {"Name": "Shaolin Jee Shin", "Description": "Sports and Physical Recreation Instruction", "Suburb": "Melbourne (CBD)", "latitude": -37.80735958, "longitude": 144.9604252, "Group": "Sports and Physical Activities"}, {"Name": "Seido Karate", "Description": "Sports and Physical Recreation Instruction", "Suburb": "Melbourne (CBD)", "latitude": -37.80838541, "longitude": 144.958272, "Group": "Sports and Physical Activities"}, {"Name": "Fawkner Park Tennis Centre", "Description": "Sports and Physical Recreation Venues, Grounds and Facilities Operation", "Suburb": "South Yarra", "latitude": -37.8410249, "longitude": 144.9817381, "Group": "Sports and Physical Activities"}, {"Name": "Carlton Gardens Tennis Club", "Description": "Sports and Physical Recreation Venues, Grounds and Facilities Operation", "Suburb": "Carlton", "latitude": -37.8019639, "longitude": 144.9719524, "Group": "Sports and Physical Activities"}, {"Name": "Princes Park Bowling Club", "Description": "Sports and Physical Recreation Venues, Grounds and Facilities Operation", "Suburb": "Carlton", "latitude": -37.78509079, "longitude": 144.9613973, "Group": "Sports and Physical Activities"}, {"Name": "Princes Hill Tennis Club", "Description": "Sports and Physical Recreation Venues, Grounds and Facilities Operation", "Suburb": "Carlton", "latitude": -37.78509079, "longitude": 144.9613973, "Group": "Sports and Physical Activities"}, {"Name": "Royal Park Tennis Club", "Description": "Sports and Physical Recreation Venues, Grounds and Facilities Operation", "Suburb": "Parkville", "latitude": -37.78603284, "longitude": 144.9508625, "Group": "Sports and Physical Activities"}, {"Name": "Anne Henderson Netball Stadium", "Description": "Sports and Physical Recreation Venues, Grounds and Facilities Operation", "Suburb": "Parkville", "latitude": -37.78603284, "longitude": 144.9508625, "Group": "Sports and Physical Activities"}, {"Name": "North Park Tennis Club", "Description": "Sports and Physical Recreation Venues, Grounds and Facilities Operation", "Suburb": "Parkville", "latitude": -37.78603284, "longitude": 144.9508625, "Group": "Sports and Physical Activities"}, {"Name": "Melbourne Storm Rugby League Club", "Description": "Sports and Physical Recreation Clubs and Sports Professionals", "Suburb": "East Melbourne", "latitude": -37.81951091, "longitude": 144.9856579, "Group": "Sports and Physical Activities"}, {"Name": "Richmond Football Club", "Description": "Sports and Physical Recreation Clubs and Sports Professionals", "Suburb": "East Melbourne", "latitude": -37.81951091, "longitude": 144.9856579, "Group": "Sports and Physical Activities"}]
