[{"Name": "Bottom of The Harbour", "Description": "Fresh Meat, Fish and Poultry Retailing", "Suburb": "Carlton", "latitude": -37.79828024, "longitude": 144.9676437, "Group": "Supermarkets"}, {"Name": "Traf's Deli", "Description": "Fresh Meat, Fish and Poultry Retailing", "Suburb": "Carlton", "latitude": -37.79803089, "longitude": 144.9681789, "Group": "Supermarkets"}, {"Name": "Woolworths", "Description": "Supermarket and Grocery Stores", "Suburb": "Carlton", "latitude": -37.79803089, "longitude": 144.9681789, "Group": "Supermarkets"}, {"Name": "Donati's Fine Meats", "Description": "Fresh Meat, Fish and Poultry Retailing", "Suburb": "Carlton", "latitude": -37.7975642, "longitude": 144.9677522, "Group": "Supermarkets"}, {"Name": "The Vegetable Exchange", "Description": "Fruit and Vegetable Wholesaling", "Suburb": "North Melbourne", "latitude": -37.80226098, "longitude": 144.9475469, "Group": "Supermarkets"}, {"Name": "Safeway", "Description": "Supermarket and Grocery Stores", "Suburb": "Melbourne (CBD)", "latitude": -37.810658, "longitude": 144.9657034, "Group": "Supermarkets"}, {"Name": "Laguna Oriental", "Description": "Supermarket and Grocery Stores", "Suburb": "Melbourne (CBD)", "latitude": -37.810658, "longitude": 144.9657034, "Group": "Supermarkets"}, {"Name": "Moore's Meats Quality Butchers", "Description": "Fresh Meat, Fish and Poultry Retailing", "Suburb": "North Melbourne", "latitude": -37.79199657, "longitude": 144.9426187, "Group": "Supermarkets"}, {"Name": "David Jones", "Description": "Department Stores", "Suburb": "Melbourne (CBD)", "latitude": -37.81330938, "longitude": 144.9643985, "Group": "Supermarkets"}, {"Name": "Myer", "Description": "Department Stores", "Suburb": "Melbourne (CBD)", "latitude": -37.81245199, "longitude": 144.9638386, "Group": "Supermarkets"}, {"Name": "Coles Myer Ltd", "Description": "Department Stores", "Suburb": "Melbourne (CBD)", "latitude": -37.81296443, "longitude": 144.9658365, "Group": "Supermarkets"}, {"Name": "Kensington Foodwise Supermarket", "Description": "Supermarket and Grocery Stores", "Suburb": "Kensington", "latitude": -37.79408278, "longitude": 144.9292465, "Group": "Supermarkets"}, {"Name": "Kensington Fruit & Vegetables", "Description": "Fruit and Vegetable Retailing", "Suburb": "Kensington", "latitude": -37.79411642, "longitude": 144.9295116, "Group": "Supermarkets"}, {"Name": "Total Food Centre", "Description": "Supermarket and Grocery Stores", "Suburb": "Carlton", "latitude": -37.80443778, "longitude": 144.9666993, "Group": "Supermarkets"}, {"Name": "Myer", "Description": "Department Stores", "Suburb": "Melbourne (CBD)", "latitude": -37.81344503, "longitude": 144.9638295, "Group": "Supermarkets"}, {"Name": "Fine Fresh Fruit", "Description": "Fruit and Vegetable Retailing", "Suburb": "East Melbourne", "latitude": -37.81636985, "longitude": 144.9874881, "Group": "Supermarkets"}, {"Name": "Eastbourne Deli", "Description": "Supermarket and Grocery Stores", "Suburb": "East Melbourne", "latitude": -37.81637751, "longitude": 144.987555, "Group": "Supermarkets"}, {"Name": "Clementines", "Description": "Supermarket and Grocery Stores", "Suburb": "Melbourne (CBD)", "latitude": -37.81760781, "longitude": 144.9656264, "Group": "Supermarkets"}, {"Name": "MK Minimart", "Description": "Supermarket and Grocery Stores", "Suburb": "Melbourne (CBD)", "latitude": -37.8125239, "longitude": 144.9648395, "Group": "Supermarkets"}, {"Name": "David Jones", "Description": "Department Stores", "Suburb": "Melbourne (CBD)", "latitude": -37.81436987, "longitude": 144.9648958, "Group": "Supermarkets"}, {"Name": "Minh Phat Asian Supermarket", "Description": "Supermarket and Grocery Stores", "Suburb": "Melbourne (CBD)", "latitude": -37.80771121, "longitude": 144.9589969, "Group": "Supermarkets"}, {"Name": "Fonda Meats", "Description": "Fresh Meat, Fish and Poultry Retailing", "Suburb": "North Melbourne", "latitude": -37.80561885, "longitude": 144.955585, "Group": "Supermarkets"}, {"Name": "Top Asian Convenience Store", "Description": "Supermarket and Grocery Stores", "Suburb": "Melbourne (CBD)", "latitude": -37.81244232, "longitude": 144.9603254, "Group": "Supermarkets"}, {"Name": "Coles Myer", "Description": "Department Stores", "Suburb": "Carlton", "latitude": -37.80375296, "longitude": 144.9596864, "Group": "Supermarkets"}, {"Name": "Foodway Supermarket", "Description": "Supermarket and Grocery Stores", "Suburb": "North Melbourne", "latitude": -37.80323405, "longitude": 144.9490086, "Group": "Supermarkets"}, {"Name": "Marino Bros", "Description": "Fruit and Vegetable Wholesaling", "Suburb": "Carlton", "latitude": -37.80433426, "longitude": 144.9593469, "Group": "Supermarkets"}, {"Name": "NRE Stalls", "Description": "Fruit and Vegetable Wholesaling", "Suburb": "West Melbourne (Industrial)", "latitude": -37.80663448, "longitude": 144.9231563, "Group": "Supermarkets"}, {"Name": "Cutri And Co", "Description": "Fruit and Vegetable Wholesaling", "Suburb": "North Melbourne", "latitude": -37.80226098, "longitude": 144.9475469, "Group": "Supermarkets"}, {"Name": "Coles Central", "Description": "Supermarket and Grocery Stores", "Suburb": "Melbourne (CBD)", "latitude": -37.81763649, "longitude": 144.965095, "Group": "Supermarkets"}, {"Name": "City Groceries", "Description": "Supermarket and Grocery Stores", "Suburb": "Melbourne (CBD)", "latitude": -37.80897917, "longitude": 144.9585116, "Group": "Supermarkets"}, {"Name": "AUR Food Rite", "Description": "Supermarket and Grocery Stores", "Suburb": "North Melbourne", "latitude": -37.80323405, "longitude": 144.9490086, "Group": "Supermarkets"}, {"Name": "Marino Bros", "Description": "Fruit and Vegetable Wholesaling", "Suburb": "Carlton", "latitude": -37.80433426, "longitude": 144.9593469, "Group": "Supermarkets"}, {"Name": "Qui Diep & Hong Milkbar", "Description": "Supermarket and Grocery Stores", "Suburb": "Carlton", "latitude": -37.79465838, "longitude": 144.9690954, "Group": "Supermarkets"}, {"Name": "Kalogirou's Store", "Description": "Supermarket and Grocery Stores", "Suburb": "Parkville", "latitude": -37.79525038, "longitude": 144.9556719, "Group": "Supermarkets"}, {"Name": "KJG International City Mart", "Description": "Supermarket and Grocery Stores", "Suburb": "Melbourne (CBD)", "latitude": -37.80671508, "longitude": 144.9601828, "Group": "Supermarkets"}, {"Name": "Sydney Meats", "Description": "Fresh Meat, Fish and Poultry Retailing", "Suburb": "Melbourne (CBD)", "latitude": -37.80745984, "longitude": 144.9572395, "Group": "Supermarkets"}, {"Name": "Johnnys Butcher", "Description": "Fresh Meat, Fish and Poultry Retailing", "Suburb": "Melbourne (CBD)", "latitude": -37.80745984, "longitude": 144.9572395, "Group": "Supermarkets"}, {"Name": "Corby Quality Meats", "Description": "Fresh Meat, Fish and Poultry Retailing", "Suburb": "Melbourne (CBD)", "latitude": -37.80745984, "longitude": 144.9572395, "Group": "Supermarkets"}, {"Name": "S J Quality Meats", "Description": "Fresh Meat, Fish and Poultry Retailing", "Suburb": "Melbourne (CBD)", "latitude": -37.80745984, "longitude": 144.9572395, "Group": "Supermarkets"}, {"Name": "Tony Butcher", "Description": "Fresh Meat, Fish and Poultry Retailing", "Suburb": "Melbourne (CBD)", "latitude": -37.80745984, "longitude": 144.9572395, "Group": "Supermarkets"}, {"Name": "Selected Meats", "Description": "Fresh Meat, Fish and Poultry Retailing", "Suburb": "Melbourne (CBD)", "latitude": -37.80745984, "longitude": 144.9572395, "Group": "Supermarkets"}, {"Name": "Poultry King", "Description": "Fresh Meat, Fish and Poultry Retailing", "Suburb": "Melbourne (CBD)", "latitude": -37.80745984, "longitude": 144.9572395, "Group": "Supermarkets"}, {"Name": "Sardes Quality Meats", "Description": "Fresh Meat, Fish and Poultry Retailing", "Suburb": "Melbourne (CBD)", "latitude": -37.80745984, "longitude": 144.9572395, "Group": "Supermarkets"}, {"Name": "Thompsons Unique Meats", "Description": "Fresh Meat, Fish and Poultry Retailing", "Suburb": "Melbourne (CBD)", "latitude": -37.80745984, "longitude": 144.9572395, "Group": "Supermarkets"}, {"Name": "Charlie Butcher", "Description": "Fresh Meat, Fish and Poultry Retailing", "Suburb": "Melbourne (CBD)", "latitude": -37.80745984, "longitude": 144.9572395, "Group": "Supermarkets"}, {"Name": "Hagen's Biodynamic Meats", "Description": "Fresh Meat, Fish and Poultry Retailing", "Suburb": "Melbourne (CBD)", "latitude": -37.80745984, "longitude": 144.9572395, "Group": "Supermarkets"}, {"Name": "N E & R M Jenkins Pty Ltd", "Description": "Fresh Meat, Fish and Poultry Retailing", "Suburb": "Melbourne (CBD)", "latitude": -37.80745984, "longitude": 144.9572395, "Group": "Supermarkets"}, {"Name": "Victorian Meat Supply", "Description": "Fresh Meat, Fish and Poultry Retailing", "Suburb": "Melbourne (CBD)", "latitude": -37.80745984, "longitude": 144.9572395, "Group": "Supermarkets"}, {"Name": "Jagos Quality Meats", "Description": "Fresh Meat, Fish and Poultry Retailing", "Suburb": "Melbourne (CBD)", "latitude": -37.80745984, "longitude": 144.9572395, "Group": "Supermarkets"}, {"Name": "Excell Meat Co", "Description": "Fresh Meat, Fish and Poultry Retailing", "Suburb": "Carlton", "latitude": -37.79812248, "longitude": 144.9669817, "Group": "Supermarkets"}, {"Name": "La Parisienne Pate Products", "Description": "Fresh Meat, Fish and Poultry Retailing", "Suburb": "Carlton", "latitude": -37.79812248, "longitude": 144.9669817, "Group": "Supermarkets"}, {"Name": "First Choice Fruit & Vegetables", "Description": "Fruit and Vegetable Retailing", "Suburb": "Carlton", "latitude": -37.79768704, "longitude": 144.9671401, "Group": "Supermarkets"}, {"Name": "East Melbourne General Store", "Description": "Supermarket and Grocery Stores", "Suburb": "East Melbourne", "latitude": -37.81482183, "longitude": 144.9887115, "Group": "Supermarkets"}, {"Name": "Marathon Food Industries", "Description": "Meat Processing", "Suburb": "Kensington", "latitude": -37.79684432, "longitude": 144.9174118, "Group": "Supermarkets"}, {"Name": "North Melbourne Wine & Gourmet", "Description": "Supermarket and Grocery Stores", "Suburb": "North Melbourne", "latitude": -37.79823272, "longitude": 144.9466965, "Group": "Supermarkets"}, {"Name": "O'Marche", "Description": "Supermarket and Grocery Stores", "Suburb": "Docklands", "latitude": -37.81460533, "longitude": 144.9412614, "Group": "Supermarkets"}, {"Name": "Foodway Express", "Description": "Supermarket and Grocery Stores", "Suburb": "Parkville", "latitude": -37.79739836, "longitude": 144.9612468, "Group": "Supermarkets"}, {"Name": "Robinsons Chep Depot", "Description": "Fruit and Vegetable Wholesaling", "Suburb": "West Melbourne (Industrial)", "latitude": -37.80663448, "longitude": 144.9231563, "Group": "Supermarkets"}, {"Name": "Vemark Pty Ltd", "Description": "Fruit and Vegetable Wholesaling", "Suburb": "West Melbourne (Industrial)", "latitude": -37.80663448, "longitude": 144.9231563, "Group": "Supermarkets"}, {"Name": "JT'S Fruit & Veg Supplies", "Description": "Fruit and Vegetable Wholesaling", "Suburb": "North Melbourne", "latitude": -37.80461511, "longitude": 144.9531874, "Group": "Supermarkets"}, {"Name": "Melba Fresh", "Description": "Fruit and Vegetable Wholesaling", "Suburb": "West Melbourne (Industrial)", "latitude": -37.80663448, "longitude": 144.9231563, "Group": "Supermarkets"}, {"Name": "E T & B J Robinson Pty Ltd", "Description": "Fruit and Vegetable Wholesaling", "Suburb": "West Melbourne (Industrial)", "latitude": -37.80663448, "longitude": 144.9231563, "Group": "Supermarkets"}, {"Name": "Market City Fruits", "Description": "Fruit and Vegetable Wholesaling", "Suburb": "West Melbourne (Industrial)", "latitude": -37.80663448, "longitude": 144.9231563, "Group": "Supermarkets"}, {"Name": "Geelong Citrus Packers", "Description": "Fruit and Vegetable Wholesaling", "Suburb": "West Melbourne (Industrial)", "latitude": -37.80663448, "longitude": 144.9231563, "Group": "Supermarkets"}, {"Name": "Alphatop", "Description": "Fruit and Vegetable Wholesaling", "Suburb": "West Melbourne (Industrial)", "latitude": -37.80663448, "longitude": 144.9231563, "Group": "Supermarkets"}, {"Name": "Fairbanks Selected Seed Co", "Description": "Fruit and Vegetable Wholesaling", "Suburb": "West Melbourne (Industrial)", "latitude": -37.80663448, "longitude": 144.9231563, "Group": "Supermarkets"}, {"Name": "Melbourne Market Authority", "Description": "Fruit and Vegetable Wholesaling", "Suburb": "West Melbourne (Industrial)", "latitude": -37.80663448, "longitude": 144.9231563, "Group": "Supermarkets"}, {"Name": "National Florist Supplies", "Description": "Fruit and Vegetable Wholesaling", "Suburb": "West Melbourne (Industrial)", "latitude": -37.80663448, "longitude": 144.9231563, "Group": "Supermarkets"}, {"Name": "Camptara Fruit & Vegetable Wholesalers", "Description": "Fruit and Vegetable Wholesaling", "Suburb": "West Melbourne (Industrial)", "latitude": -37.80663448, "longitude": 144.9231563, "Group": "Supermarkets"}, {"Name": "M & N Fresh Produce", "Description": "Fruit and Vegetable Wholesaling", "Suburb": "West Melbourne (Industrial)", "latitude": -37.80663448, "longitude": 144.9231563, "Group": "Supermarkets"}, {"Name": "Moraitis Fresh Produce (Victoria)", "Description": "Fruit and Vegetable Wholesaling", "Suburb": "West Melbourne (Industrial)", "latitude": -37.80663448, "longitude": 144.9231563, "Group": "Supermarkets"}, {"Name": "Fresh Zu", "Description": "Fruit and Vegetable Wholesaling", "Suburb": "West Melbourne (Industrial)", "latitude": -37.80663448, "longitude": 144.9231563, "Group": "Supermarkets"}, {"Name": "Fresh Berry Co", "Description": "Fruit and Vegetable Wholesaling", "Suburb": "West Melbourne (Industrial)", "latitude": -37.80663448, "longitude": 144.9231563, "Group": "Supermarkets"}, {"Name": "FW Westmore & Sons", "Description": "Fruit and Vegetable Wholesaling", "Suburb": "West Melbourne (Industrial)", "latitude": -37.80663448, "longitude": 144.9231563, "Group": "Supermarkets"}, {"Name": "S & M Fresh Produce", "Description": "Fruit and Vegetable Wholesaling", "Suburb": "West Melbourne (Industrial)", "latitude": -37.80663448, "longitude": 144.9231563, "Group": "Supermarkets"}, {"Name": "Organic Wholesalers Pty Ltd", "Description": "Fruit and Vegetable Wholesaling", "Suburb": "West Melbourne (Industrial)", "latitude": -37.80663448, "longitude": 144.9231563, "Group": "Supermarkets"}, {"Name": "Nu Fruit", "Description": "Fruit and Vegetable Wholesaling", "Suburb": "West Melbourne (Industrial)", "latitude": -37.80663448, "longitude": 144.9231563, "Group": "Supermarkets"}, {"Name": "VF Siciliano & Sons Pty Ltd", "Description": "Fruit and Vegetable Wholesaling", "Suburb": "West Melbourne (Industrial)", "latitude": -37.80663448, "longitude": 144.9231563, "Group": "Supermarkets"}, {"Name": "John Holman & Co Pty Limited", "Description": "Fruit and Vegetable Wholesaling", "Suburb": "West Melbourne (Industrial)", "latitude": -37.80663448, "longitude": 144.9231563, "Group": "Supermarkets"}, {"Name": "Sunzest The Organic Grower", "Description": "Fruit and Vegetable Wholesaling", "Suburb": "West Melbourne (Industrial)", "latitude": -37.80663448, "longitude": 144.9231563, "Group": "Supermarkets"}, {"Name": "Rich River Produce Pty Ltd", "Description": "Fruit and Vegetable Wholesaling", "Suburb": "West Melbourne (Industrial)", "latitude": -37.80663448, "longitude": 144.9231563, "Group": "Supermarkets"}, {"Name": "Kelly Bros Market Gardners", "Description": "Fruit and Vegetable Wholesaling", "Suburb": "West Melbourne (Industrial)", "latitude": -37.80663448, "longitude": 144.9231563, "Group": "Supermarkets"}, {"Name": "ASPI Wholesalers", "Description": "Fruit and Vegetable Wholesaling", "Suburb": "West Melbourne (Industrial)", "latitude": -37.80663448, "longitude": 144.9231563, "Group": "Supermarkets"}, {"Name": "M & M Wholesale Fruit & Veg", "Description": "Fruit and Vegetable Wholesaling", "Suburb": "West Melbourne (Industrial)", "latitude": -37.80663448, "longitude": 144.9231563, "Group": "Supermarkets"}, {"Name": "Patricia Wong", "Description": "Fruit and Vegetable Wholesaling", "Suburb": "West Melbourne (Industrial)", "latitude": -37.80663448, "longitude": 144.9231563, "Group": "Supermarkets"}, {"Name": "Mildura Growers Co Op", "Description": "Fruit and Vegetable Wholesaling", "Suburb": "West Melbourne (Industrial)", "latitude": -37.80663448, "longitude": 144.9231563, "Group": "Supermarkets"}, {"Name": "Abix Investments", "Description": "Fruit and Vegetable Wholesaling", "Suburb": "West Melbourne (Industrial)", "latitude": -37.80663448, "longitude": 144.9231563, "Group": "Supermarkets"}, {"Name": "Oz Fresh", "Description": "Fruit and Vegetable Wholesaling", "Suburb": "West Melbourne (Industrial)", "latitude": -37.80663448, "longitude": 144.9231563, "Group": "Supermarkets"}, {"Name": "Hoang Oanh Co Pty Ltd", "Description": "Fruit and Vegetable Wholesaling", "Suburb": "West Melbourne (Industrial)", "latitude": -37.80663448, "longitude": 144.9231563, "Group": "Supermarkets"}, {"Name": "Jack Melbourne", "Description": "Fruit and Vegetable Wholesaling", "Suburb": "West Melbourne (Industrial)", "latitude": -37.80663448, "longitude": 144.9231563, "Group": "Supermarkets"}, {"Name": "E E Muir & Sons Pty Ltd", "Description": "Fruit and Vegetable Wholesaling", "Suburb": "West Melbourne (Industrial)", "latitude": -37.80663448, "longitude": 144.9231563, "Group": "Supermarkets"}, {"Name": "Exton McLaine & Co Pty Limited", "Description": "Fruit and Vegetable Wholesaling", "Suburb": "West Melbourne (Industrial)", "latitude": -37.80663448, "longitude": 144.9231563, "Group": "Supermarkets"}, {"Name": "Lamanna Bananas Pty Ltd", "Description": "Fruit and Vegetable Wholesaling", "Suburb": "West Melbourne (Industrial)", "latitude": -37.80663448, "longitude": 144.9231563, "Group": "Supermarkets"}]
