[
  {"Name": "Urban Camp Melbourne Co-Operative",
  "Description": "Amusement and Other Recreational Activities n.e.c.",
  "Suburb": "Parkville",
  "latitude": -37.78603284,
  "longitude": 144.9508625, 
  "Group": "Amusement Parks and Game Center"},
  {"Name": "Music Theatre - Australia",
    "Description": "Amusement and Other Recreational Activities n.e.c.", "Suburb": "Southbank", "latitude": -37.82446912, "longitude": 144.9694673, "Group": "Amusement Parks and Game Center"}, {"Name": "Atlantic South Wharf Function Centre", "Description": "Amusement and Other Recreational Activities n.e.c.", "Suburb": "Southbank", "latitude": -37.82409303, "longitude": 144.9503336, "Group": "Amusement Parks and Game Center"}, {"Name": "Cyber Pit", "Description": "Amusement and Other Recreational Activities n.e.c.", "Suburb": "Parkville", "latitude": -37.79739836, "longitude": 144.9612468, "Group": "Amusement Parks and Game Center"}, {"Name": "Gilbert", "Description": "Amusement and Other Recreational Activities n.e.c.", "Suburb": "Port Melbourne", "latitude": -37.82997464, "longitude": 144.901215, "Group": "Amusement Parks and Game Center"}, {"Name": "Newquay Marina", "Description": "Amusement and Other Recreational Activities n.e.c.", "Suburb": "Docklands", "latitude": -37.81460533, "longitude": 144.9412614, "Group": "Amusement Parks and Game Center"}, {"Name": "The Royal Agricultural Society of Victoria", "Description": "Amusement and Other Recreational Activities n.e.c.", "Suburb": "Kensington", "latitude": -37.78231999, "longitude": 144.9116038, "Group": "Amusement Parks and Game Center"}, {"Name": "Galactic Circus", "Description": "Amusement Parks and Centres Operation", "Suburb": "Southbank", "latitude": -37.82312164, "longitude": 144.9586604, "Group": "Amusement Parks and Game Center"}, {"Name": "Russell St City Fun Centre", "Description": "Amusement Parks and Centres Operation", "Suburb": "Melbourne (CBD)", "latitude": -37.81246709, "longitude": 144.9676479, "Group": "Amusement Parks and Game Center"}, {"Name": "Atlantic South Wharf Function Centre", "Description": "Amusement and Other Recreational Activities n.e.c.", "Suburb": "Southbank", "latitude": -37.82409303, "longitude": 144.9503336, "Group": "Amusement Parks and Game Center"}, {"Name": "Music Theatre - Pot Pourri", "Description": "Amusement and Other Recreational Activities n.e.c.", "Suburb": "Southbank", "latitude": -37.82446912, "longitude": 144.9694673, "Group": "Amusement Parks and Game Center"}, {"Name": "Amusement Zone", "Description": "Amusement Parks and Centres Operation", "Suburb": "Melbourne (CBD)", "latitude": -37.81225906, "longitude": 144.9675307, "Group": "Amusement Parks and Game Center"}, {"Name": "Amusement Zone", "Description": "Amusement Parks and Centres Operation", "Suburb": "Melbourne (CBD)", "latitude": -37.81231665, "longitude": 144.9675585, "Group": "Amusement Parks and Game Center"}, {"Name": "Amusement Centre", "Description": "Amusement Parks and Centres Operation", "Suburb": "Melbourne (CBD)", "latitude": -37.81267583, "longitude": 144.9676888, "Group": "Amusement Parks and Game Center"}, {"Name": "Playtime Family Entertainment Centre", "Description": "Amusement Parks and Centres Operation", "Suburb": "Melbourne (CBD)", "latitude": -37.81223835, "longitude": 144.9691823, "Group": "Amusement Parks and Game Center"}, {"Name": "Timezone", "Description": "Amusement Parks and Centres Operation", "Suburb": "Melbourne (CBD)", "latitude": -37.8163275, "longitude": 144.9666228, "Group": "Amusement Parks and Game Center"}, {"Name": "Urban Camp Melbourne Co-Operative", "Description": "Amusement and Other Recreational Activities n.e.c.", "Suburb": "Parkville", "latitude": -37.78603284, "longitude": 144.9508625, "Group": "Amusement Parks and Game Center"}, {"Name": "Marina YE", "Description": "Amusement and Other Recreational Activities n.e.c.", "Suburb": "Docklands", "latitude": -37.82470448, "longitude": 144.944965, "Group": "Amusement Parks and Game Center"}, {"Name": "Corporate Sports & Entertainment Group", "Description": "Amusement and Other Recreational Activities n.e.c.", "Suburb": "Melbourne (CBD)", "latitude": -37.81467989, "longitude": 144.9602243, "Group": "Amusement Parks and Game Center"}, {"Name": "Russell St City Fun Centre", "Description": "Amusement Parks and Centres Operation", "Suburb": "Melbourne (CBD)", "latitude": -37.81246709, "longitude": 144.9676479, "Group": "Amusement Parks and Game Center"}, {"Name": "Galactic Circus", "Description": "Amusement Parks and Centres Operation", "Suburb": "Southbank", "latitude": -37.82312164, "longitude": 144.9586604, "Group": "Amusement Parks and Game Center"}, {"Name": "Blue Haise Amusement", "Description": "Amusement and Other Recreational Activities n.e.c.", "Suburb": "Melbourne (CBD)", "latitude": -37.81267583, "longitude": 144.9676888, "Group": "Amusement Parks and Game Center"}, {"Name": "Amusement Centre", "Description": "Amusement Parks and Centres Operation", "Suburb": "Melbourne (CBD)", "latitude": -37.81267583, "longitude": 144.9676888, "Group": "Amusement Parks and Game Center"}, {"Name": "Amusement Zone", "Description": "Amusement Parks and Centres Operation", "Suburb": "Melbourne (CBD)", "latitude": -37.81225906, "longitude": 144.9675307, "Group": "Amusement Parks and Game Center"}, {"Name": "Amusement Zone", "Description": "Amusement Parks and Centres Operation", "Suburb": "Melbourne (CBD)", "latitude": -37.81231665, "longitude": 144.9675585, "Group": "Amusement Parks and Game Center"}, {"Name": "d'Albora Marinas", "Description": "Amusement and Other Recreational Activities n.e.c.", "Suburb": "Docklands", "latitude": -37.81938143, "longitude": 144.9429888, "Group": "Amusement Parks and Game Center"}, {"Name": "VA Melbourne ", "Description": "Amusement and Other Recreational Activities n.e.c.", "Suburb": "Melbourne (CBD)", "latitude": -37.81265943, "longitude": 144.967177, "Group": "Amusement Parks and Game Center"}, {"Name": "Atlantic South Wharf Function Centre", "Description": "Amusement and Other Recreational Activities n.e.c.", "Suburb": "Southbank", "latitude": -37.82409303, "longitude": 144.9503336, "Group": "Amusement Parks and Game Center"}, {"Name": "Monkey Mania", "Description": "Amusement and Other Recreational Activities n.e.c.", "Suburb": "Docklands", "latitude": -37.81315031, "longitude": 144.9378299, "Group": "Amusement Parks and Game Center"}, {"Name": "Family Fun Centres ", "Description": "Amusement Parks and Centres Operation", "Suburb": "Docklands", "latitude": -37.81315031, "longitude": 144.9378299, "Group": "Amusement Parks and Game Center"}, {"Name": "Tunza Fun", "Description": "Amusement Parks and Centres Operation", "Suburb": "Docklands", "latitude": -37.81315031, "longitude": 144.9378299, "Group": "Amusement Parks and Game Center"}, {"Name": "Playtime Family Entertainment Centre", "Description": "Amusement Parks and Centres Operation", "Suburb": "Melbourne (CBD)", "latitude": -37.81223835, "longitude": 144.9691823, "Group": "Amusement Parks and Game Center"}, {"Name": "Intermission", "Description": "Amusement Parks and Centres Operation", "Suburb": "Melbourne (CBD)", "latitude": -37.80818365, "longitude": 144.9645504, "Group": "Amusement Parks and Game Center"}, {"Name": "Flight Experience", "Description": "Amusement and Other Recreational Activities n.e.c.", "Suburb": "Melbourne (CBD)", "latitude": -37.810658, "longitude": 144.9657034, "Group": "Amusement Parks and Game Center"}, {"Name": "Blue Haise Amusement", "Description": "Amusement and Other Recreational Activities n.e.c.", "Suburb": "Melbourne (CBD)", "latitude": -37.81267583, "longitude": 144.9676888, "Group": "Amusement Parks and Game Center"}, {"Name": "Urban Camp Melbourne Co-Operative", "Description": "Amusement and Other Recreational Activities n.e.c.", "Suburb": "Parkville", "latitude": -37.78603284, "longitude": 144.9508625, "Group": "Amusement Parks and Game Center"}, {"Name": "Galactic Circus", "Description": "Amusement Parks and Centres Operation", "Suburb": "Southbank", "latitude": -37.82312164, "longitude": 144.9586604, "Group": "Amusement Parks and Game Center"}, {"Name": "Flight Experience", "Description": "Amusement and Other Recreational Activities n.e.c.", "Suburb": "Melbourne (CBD)", "latitude": -37.810658, "longitude": 144.9657034, "Group": "Amusement Parks and Game Center"}, {"Name": "Dive Resort Management", "Description": "Amusement and Other Recreational Activities n.e.c.", "Suburb": "Melbourne (CBD)", "latitude": -37.81327283, "longitude": 144.9528962, "Group": "Amusement Parks and Game Center"}, {"Name": "Corporate Sports & Entertainment Group", "Description": "Amusement and Other Recreational Activities n.e.c.", "Suburb": "Melbourne (CBD)", "latitude": -37.81467989, "longitude": 144.9602243, "Group": "Amusement Parks and Game Center"}, {"Name": "Russell St City Fun Centre", "Description": "Amusement Parks and Centres Operation", "Suburb": "Melbourne (CBD)", "latitude": -37.81246709, "longitude": 144.9676479, "Group": "Amusement Parks and Game Center"}, {"Name": "Music Theatre - Australia", "Description": "Amusement and Other Recreational Activities n.e.c.", "Suburb": "Southbank", "latitude": -37.82446912, "longitude": 144.9694673, "Group": "Amusement Parks and Game Center"}, {"Name": "Galactic Circus", "Description": "Amusement Parks and Centres Operation", "Suburb": "Southbank", "latitude": -37.82312164, "longitude": 144.9586604, "Group": "Amusement Parks and Game Center"}, {"Name": "Jands Pty Ltd", "Description": "Amusement and Other Recreational Activities n.e.c.", "Suburb": "Port Melbourne", "latitude": -37.82651579, "longitude": 144.9067154, "Group": "Amusement Parks and Game Center"}, {"Name": "Urban Camp Melbourne Co-Operative", "Description": "Amusement and Other Recreational Activities n.e.c.", "Suburb": "Parkville", "latitude": -37.78603284, "longitude": 144.9508625, "Group": "Amusement Parks and Game Center"}, {"Name": "Flight Experience Australia Pty Ltd", "Description": "Amusement and Other Recreational Activities n.e.c.", "Suburb": "Melbourne (CBD)", "latitude": -37.810658, "longitude": 144.9657034, "Group": "Amusement Parks and Game Center"}, {"Name": "The Royal Agricultural Society of Victoria", "Description": "Amusement and Other Recreational Activities n.e.c.", "Suburb": "Kensington", "latitude": -37.78231999, "longitude": 144.9116038, "Group": "Amusement Parks and Game Center"}, {"Name": "Russell St City Fun Centre", "Description": "Amusement Parks and Centres Operation", "Suburb": "Melbourne (CBD)", "latitude": -37.81246709, "longitude": 144.9676479, "Group": "Amusement Parks and Game Center"}, {"Name": "Atlantic South Wharf Function Centre", "Description": "Amusement and Other Recreational Activities n.e.c.", "Suburb": "Southbank", "latitude": -37.82409303, "longitude": 144.9503336, "Group": "Amusement Parks and Game Center"}, {"Name": "Music Theatre - Australia", "Description": "Amusement and Other Recreational Activities n.e.c.", "Suburb": "Southbank", "latitude": -37.82446912, "longitude": 144.9694673, "Group": "Amusement Parks and Game Center"}, {"Name": "Amusement Zone", "Description": "Amusement Parks and Centres Operation", "Suburb": "Melbourne (CBD)", "latitude": -37.81231665, "longitude": 144.9675585, "Group": "Amusement Parks and Game Center"}, {"Name": "E Games", "Description": "Amusement and Other Recreational Activities n.e.c.", "Suburb": "Melbourne (CBD)", "latitude": -37.81267583, "longitude": 144.9676888, "Group": "Amusement Parks and Game Center"}, {"Name": "Bill Vanina Pavillion", "Description": "Amusement and Other Recreational Activities n.e.c.", "Suburb": "Kensington", "latitude": -37.79794055, "longitude": 144.9240412, "Group": "Amusement Parks and Game Center"}, {"Name": "Corporate Sports & Entertainment Group", "Description": "Amusement and Other Recreational Activities n.e.c.", "Suburb": "Melbourne (CBD)", "latitude": -37.81467989, "longitude": 144.9602243, "Group": "Amusement Parks and Game Center"}, {"Name": "AFL World", "Description": "Amusement and Other Recreational Activities n.e.c.", "Suburb": "Melbourne (CBD)", "latitude": -37.810658, "longitude": 144.9657034, "Group": "Amusement Parks and Game Center"}, {"Name": "EDG", "Description": "Amusement and Other Recreational Activities n.e.c.", "Suburb": "Southbank", "latitude": -37.82575373, "longitude": 144.9596201, "Group": "Amusement Parks and Game Center"}, {"Name": "Blue House Amusement", "Description": "Amusement and Other Recreational Activities n.e.c.", "Suburb": "Melbourne (CBD)", "latitude": -37.81267583, "longitude": 144.9676888, "Group": "Amusement Parks and Game Center"}, {"Name": "Blue House Amusement", "Description": "Amusement and Other Recreational Activities n.e.c.", "Suburb": "Melbourne (CBD)", "latitude": -37.81267583, "longitude": 144.9676888, "Group": "Amusement Parks and Game Center"}, {"Name": "Wonderland Fun Park", "Description": "Amusement Parks and Centres Operation", "Suburb": "Docklands", "latitude": -37.81159357, "longitude": 144.9367992, "Group": "Amusement Parks and Game Center"}, {"Name": "Marina YE", "Description": "Amusement and Other Recreational Activities n.e.c.", "Suburb": "Docklands", "latitude": -37.82470448, "longitude": 144.944965, "Group": "Amusement Parks and Game Center"}, {"Name": "Timezone", "Description": "Amusement Parks and Centres Operation", "Suburb": "Melbourne (CBD)", "latitude": -37.8163275, "longitude": 144.9666228, "Group": "Amusement Parks and Game Center"}, {"Name": "The Royal Agricultural Society of Victoria Limited", "Description": "Amusement and Other Recreational Activities n.e.c.", "Suburb": "Kensington", "latitude": -37.78231999, "longitude": 144.9116038, "Group": "Amusement Parks and Game Center"}, {"Name": "New Quay Marina", "Description": "Amusement and Other Recreational Activities n.e.c.", "Suburb": "Docklands", "latitude": -37.81460533, "longitude": 144.9412614, "Group": "Amusement Parks and Game Center"}, {"Name": "Cruz Galleries", "Description": "Amusement and Other Recreational Activities n.e.c.", "Suburb": "Docklands", "latitude": -37.81517782, "longitude": 144.9390269, "Group": "Amusement Parks and Game Center"}, {"Name": "Bill Vanina Pavillion", "Description": "Amusement and Other Recreational Activities n.e.c.", "Suburb": "Kensington", "latitude": -37.79794055, "longitude": 144.9240412, "Group": "Amusement Parks and Game Center"}, {"Name": "Photo World", "Description": "Amusement Parks and Centres Operation", "Suburb": "Melbourne (CBD)", "latitude": -37.81386024, "longitude": 144.9654075, "Group": "Amusement Parks and Game Center"}, {"Name": "RASV Melbourne Show Grounds", "Description": "Amusement and Other Recreational Activities n.e.c.", "Suburb": "Kensington", "latitude": -37.78231999, "longitude": 144.9116038, "Group": "Amusement Parks and Game Center"}, {"Name": "Jands Pty Ltd", "Description": "Amusement and Other Recreational Activities n.e.c.", "Suburb": "Port Melbourne", "latitude": -37.82651579, "longitude": 144.9067154, "Group": "Amusement Parks and Game Center"}, {"Name": "d'Albora Marinas", "Description": "Amusement and Other Recreational Activities n.e.c.", "Suburb": "Docklands", "latitude": -37.81938143, "longitude": 144.9429888, "Group": "Amusement Parks and Game Center"}, {"Name": "d'Albora Marinas", "Description": "Amusement and Other Recreational Activities n.e.c.", "Suburb": "Docklands", "latitude": -37.81938143, "longitude": 144.9429888, "Group": "Amusement Parks and Game Center"}, {"Name": "Tote Tasmania Pty Ltd ", "Description": "Amusement and Other Recreational Activities n.e.c.", "Suburb": "Melbourne (CBD)", "latitude": -37.8176551, "longitude": 144.9579514, "Group": "Amusement Parks and Game Center"}, {"Name": "Family Fun Centres Black Light Mini Golf", "Description": "Amusement Parks and Centres Operation", "Suburb": "Docklands", "latitude": -37.81315031, "longitude": 144.9378299, "Group": "Amusement Parks and Game Center"}, {"Name": "Eureka 89", "Description": "Amusement and Other Recreational Activities n.e.c.", "Suburb": "Southbank", "latitude": -37.82166549, "longitude": 144.9645668, "Group": "Amusement Parks and Game Center"}, {"Name": "Eureka Skydeck", "Description": "Amusement and Other Recreational Activities n.e.c.", "Suburb": "Southbank", "latitude": -37.82166549, "longitude": 144.9645668, "Group": "Amusement Parks and Game Center"}, {"Name": "Russell St City Fun Centre", "Description": "Amusement Parks and Centres Operation", "Suburb": "Melbourne (CBD)", "latitude": -37.81246709, "longitude": 144.9676479, "Group": "Amusement Parks and Game Center"}, {"Name": "Music Theatre - Pot Pourri", "Description": "Amusement and Other Recreational Activities n.e.c.", "Suburb": "Southbank", "latitude": -37.82446912, "longitude": 144.9694673, "Group": "Amusement Parks and Game Center"}, {"Name": "E-Games", "Description": "Amusement Parks and Centres Operation", "Suburb": "Melbourne (CBD)", "latitude": -37.81271995, "longitude": 144.9675389, "Group": "Amusement Parks and Game Center"}, {"Name": "RASV Melbourne Show Grounds", "Description": "Amusement and Other Recreational Activities n.e.c.", "Suburb": "Kensington", "latitude": -37.78231999, "longitude": 144.9116038, "Group": "Amusement Parks and Game Center"}, {"Name": "Intermission", "Description": "Amusement Parks and Centres Operation", "Suburb": "Melbourne (CBD)", "latitude": -37.80818365, "longitude": 144.9645504, "Group": "Amusement Parks and Game Center"}, {"Name": "Marina YE", "Description": "Amusement and Other Recreational Activities n.e.c.", "Suburb": "Docklands", "latitude": -37.82470448, "longitude": 144.944965, "Group": "Amusement Parks and Game Center"}, {"Name": "Jands Pty Ltd", "Description": "Amusement and Other Recreational Activities n.e.c.", "Suburb": "Port Melbourne", "latitude": -37.82651579, "longitude": 144.9067154, "Group": "Amusement Parks and Game Center"}]
