[{"Name": "Melbourne Fitness Centre", "Description": "Health and Fitness Centres and Gymnasia Operation", "Suburb": "Melbourne (CBD)", "latitude": -37.81813804, "longitude": 144.9562175, "Group": "Fitness"}, {"Name": "RMIT Union Fitness Centre", "Description": "Health and Fitness Centres and Gymnasia Operation", "Suburb": "Melbourne (CBD)", "latitude": -37.80818365, "longitude": 144.9645504, "Group": "Fitness"}, {"Name": "Vibromania", "Description": "Health and Fitness Centres and Gymnasia Operation", "Suburb": "Docklands", "latitude": -37.81925128, "longitude": 144.9479753, "Group": "Fitness"}, {"Name": "Corporate Fitness Club", "Description": "Health and Fitness Centres and Gymnasia Operation", "Suburb": "Melbourne (CBD)", "latitude": -37.81771479, "longitude": 144.9637238, "Group": "Fitness"}, {"Name": "Lifestyle Fitness Centre", "Description": "Health and Fitness Centres and Gymnasia Operation", "Suburb": "Melbourne (CBD)", "latitude": -37.81494883, "longitude": 144.9587607, "Group": "Fitness"}, {"Name": "2-Good", "Description": "Health and Fitness Centres and Gymnasia Operation", "Suburb": "Melbourne (Remainder)", "latitude": -37.83570366, "longitude": 144.9760426, "Group": "Fitness"}, {"Name": "Corporate Health Clubs", "Description": "Health and Fitness Centres and Gymnasia Operation", "Suburb": "Melbourne (CBD)", "latitude": -37.81430616, "longitude": 144.9726281, "Group": "Fitness"}, {"Name": "Align Fitness", "Description": "Health and Fitness Centres and Gymnasia Operation", "Suburb": "Southbank", "latitude": -37.83070462, "longitude": 144.9662961, "Group": "Fitness"}, {"Name": "Southern Pacific Health Clubs", "Description": "Health and Fitness Centres and Gymnasia Operation", "Suburb": "Melbourne (CBD)", "latitude": -37.81539801, "longitude": 144.9571769, "Group": "Fitness"}, {"Name": "Fernwood Carlton", "Description": "Health and Fitness Centres and Gymnasia Operation", "Suburb": "Carlton", "latitude": -37.79559865, "longitude": 144.9749525, "Group": "Fitness"}, {"Name": "Shapes Health and Fitness", "Description": "Health and Fitness Centres and Gymnasia Operation", "Suburb": "Melbourne (CBD)", "latitude": -37.81953163, "longitude": 144.9622868, "Group": "Fitness"}, {"Name": "Kensington Community Recreation Centre", "Description": "Health and Fitness Centres and Gymnasia Operation", "Suburb": "Kensington", "latitude": -37.79794055, "longitude": 144.9240412, "Group": "Fitness"}, {"Name": "Aline Pilates", "Description": "Health and Fitness Centres and Gymnasia Operation", "Suburb": "Carlton", "latitude": -37.80409517, "longitude": 144.9674084, "Group": "Fitness"}, {"Name": "Jenny Craig ", "Description": "Diet and Weight Reduction Centre Operation", "Suburb": "Melbourne (CBD)", "latitude": -37.8153942, "longitude": 144.9659697, "Group": "Fitness"}, {"Name": "Body Justice Health & Fitness Centre", "Description": "Health and Fitness Centres and Gymnasia Operation", "Suburb": "Melbourne (CBD)", "latitude": -37.81946849, "longitude": 144.9586012, "Group": "Fitness"}, {"Name": "Equilibrium Health And Fitness", "Description": "Health and Fitness Centres and Gymnasia Operation", "Suburb": "North Melbourne", "latitude": -37.80447671, "longitude": 144.9490146, "Group": "Fitness"}, {"Name": "Fitline", "Description": "Health and Fitness Centres and Gymnasia Operation", "Suburb": "Melbourne (CBD)", "latitude": -37.8186626, "longitude": 144.957551, "Group": "Fitness"}, {"Name": "Studio Cirq", "Description": "Health and Fitness Centres and Gymnasia Operation", "Suburb": "Melbourne (CBD)", "latitude": -37.8121518, "longitude": 144.9721078, "Group": "Fitness"}, {"Name": "The World Wing Chun Kung Fu Academy", "Description": "Health and Fitness Centres and Gymnasia Operation", "Suburb": "Melbourne (CBD)", "latitude": -37.8109979, "longitude": 144.9683249, "Group": "Fitness"}, {"Name": "Alligned For Life Pilates ", "Description": "Health and Fitness Centres and Gymnasia Operation", "Suburb": "Melbourne (CBD)", "latitude": -37.81625601, "longitude": 144.9609288, "Group": "Fitness"}, {"Name": "Docklands Gym", "Description": "Health and Fitness Centres and Gymnasia Operation", "Suburb": "Docklands", "latitude": -37.82253633, "longitude": 144.9536422, "Group": "Fitness"}, {"Name": "Club Lifestyle Pty Ltd", "Description": "Health and Fitness Centres and Gymnasia Operation", "Suburb": "Melbourne (CBD)", "latitude": -37.81686865, "longitude": 144.957088, "Group": "Fitness"}, {"Name": "Corporate Health Clubs", "Description": "Health and Fitness Centres and Gymnasia Operation", "Suburb": "Melbourne (CBD)", "latitude": -37.81430616, "longitude": 144.9726281, "Group": "Fitness"}, {"Name": "Fernwood Women's Health Club", "Description": "Health and Fitness Centres and Gymnasia Operation", "Suburb": "Melbourne (CBD)", "latitude": -37.81936891, "longitude": 144.9581001, "Group": "Fitness"}, {"Name": "Weight Watchers", "Description": "Diet and Weight Reduction Centre Operation", "Suburb": "Melbourne (CBD)", "latitude": -37.8163275, "longitude": 144.9666228, "Group": "Fitness"}, {"Name": "Body Justice Health & Fitness Centre", "Description": "Health and Fitness Centres and Gymnasia Operation", "Suburb": "Melbourne (CBD)", "latitude": -37.81946849, "longitude": 144.9586012, "Group": "Fitness"}, {"Name": "Lady Works Fitness Club for Women", "Description": "Health and Fitness Centres and Gymnasia Operation", "Suburb": "Melbourne (CBD)", "latitude": -37.80940023, "longitude": 144.9628194, "Group": "Fitness"}, {"Name": "Health by Design", "Description": "Health and Fitness Centres and Gymnasia Operation", "Suburb": "Melbourne (CBD)", "latitude": -37.81372701, "longitude": 144.9737201, "Group": "Fitness"}, {"Name": "Lifestyle Fitness Centre", "Description": "Health and Fitness Centres and Gymnasia Operation", "Suburb": "Melbourne (CBD)", "latitude": -37.81494883, "longitude": 144.9587607, "Group": "Fitness"}, {"Name": "Corporate Fitness Club", "Description": "Health and Fitness Centres and Gymnasia Operation", "Suburb": "Melbourne (CBD)", "latitude": -37.81771479, "longitude": 144.9637238, "Group": "Fitness"}, {"Name": "Fernwood Women's Health Club", "Description": "Health and Fitness Centres and Gymnasia Operation", "Suburb": "Melbourne (CBD)", "latitude": -37.81936891, "longitude": 144.9581001, "Group": "Fitness"}, {"Name": "Charltons Pool Hall", "Description": "Health and Fitness Centres and Gymnasia Operation", "Suburb": "Melbourne (CBD)", "latitude": -37.81206119, "longitude": 144.9685359, "Group": "Fitness"}, {"Name": "Underworld Health & Fitness", "Description": "Health and Fitness Centres and Gymnasia Operation", "Suburb": "Melbourne (CBD)", "latitude": -37.81953163, "longitude": 144.9622868, "Group": "Fitness"}, {"Name": "Jenny Craig Weight Loss Centres Pty Ltd", "Description": "Diet and Weight Reduction Centre Operation", "Suburb": "Melbourne (CBD)", "latitude": -37.8153942, "longitude": 144.9659697, "Group": "Fitness"}, {"Name": "Melbourne Fitness Club", "Description": "Health and Fitness Centres and Gymnasia Operation", "Suburb": "Melbourne (CBD)", "latitude": -37.81491502, "longitude": 144.9629442, "Group": "Fitness"}, {"Name": "Docklands Gym", "Description": "Health and Fitness Centres and Gymnasia Operation", "Suburb": "Docklands", "latitude": -37.82253633, "longitude": 144.9536422, "Group": "Fitness"}, {"Name": "RMIT Union Fitness Centre", "Description": "Health and Fitness Centres and Gymnasia Operation", "Suburb": "Melbourne (CBD)", "latitude": -37.80818365, "longitude": 144.9645504, "Group": "Fitness"}, {"Name": "Melbourne Fitness Centre", "Description": "Health and Fitness Centres and Gymnasia Operation", "Suburb": "Melbourne (CBD)", "latitude": -37.81813804, "longitude": 144.9562175, "Group": "Fitness"}, {"Name": "Teamfit", "Description": "Health and Fitness Centres and Gymnasia Operation", "Suburb": "Southbank", "latitude": -37.82204573, "longitude": 144.9662418, "Group": "Fitness"}, {"Name": "Equilibrium Health And Fitness", "Description": "Health and Fitness Centres and Gymnasia Operation", "Suburb": "North Melbourne", "latitude": -37.80447671, "longitude": 144.9490146, "Group": "Fitness"}, {"Name": "MPT", "Description": "Health and Fitness Centres and Gymnasia Operation", "Suburb": "Melbourne (Remainder)", "latitude": -37.84459108, "longitude": 144.9798732, "Group": "Fitness"}, {"Name": "Crunchtime Training Studios", "Description": "Health and Fitness Centres and Gymnasia Operation", "Suburb": "Melbourne (CBD)", "latitude": -37.8121518, "longitude": 144.9721078, "Group": "Fitness"}, {"Name": "Matrix Pilates & Yoga ", "Description": "Health and Fitness Centres and Gymnasia Operation", "Suburb": "Melbourne (CBD)", "latitude": -37.81386024, "longitude": 144.9654075, "Group": "Fitness"}, {"Name": "Wing Chun Kung Fu", "Description": "Health and Fitness Centres and Gymnasia Operation", "Suburb": "Melbourne (CBD)", "latitude": -37.81053336, "longitude": 144.9691194, "Group": "Fitness"}, {"Name": "Tonic Personal Training", "Description": "Health and Fitness Centres and Gymnasia Operation", "Suburb": "Carlton", "latitude": -37.7969727, "longitude": 144.9703124, "Group": "Fitness"}, {"Name": "Genesis Fitness", "Description": "Health and Fitness Centres and Gymnasia Operation", "Suburb": "Melbourne (Remainder)", "latitude": -37.83949217, "longitude": 144.977677, "Group": "Fitness"}, {"Name": "Curves", "Description": "Health and Fitness Centres and Gymnasia Operation", "Suburb": "Melbourne (CBD)", "latitude": -37.81589843, "longitude": 144.9551743, "Group": "Fitness"}, {"Name": "Fitness First", "Description": "Health and Fitness Centres and Gymnasia Operation", "Suburb": "Melbourne (CBD)", "latitude": -37.81824465, "longitude": 144.9558446, "Group": "Fitness"}, {"Name": "Fitness First Platinum", "Description": "Health and Fitness Centres and Gymnasia Operation", "Suburb": "Melbourne (CBD)", "latitude": -37.810658, "longitude": 144.9657034, "Group": "Fitness"}, {"Name": "Fitness First", "Description": "Health and Fitness Centres and Gymnasia Operation", "Suburb": "Melbourne (CBD)", "latitude": -37.81824465, "longitude": 144.9558446, "Group": "Fitness"}, {"Name": "Fitness First", "Description": "Health and Fitness Centres and Gymnasia Operation", "Suburb": "Melbourne (CBD)", "latitude": -37.81073331, "longitude": 144.9630189, "Group": "Fitness"}, {"Name": "Jon Weller Stusies", "Description": "Health and Fitness Centres and Gymnasia Operation", "Suburb": "Melbourne (CBD)", "latitude": -37.81361257, "longitude": 144.9623027, "Group": "Fitness"}, {"Name": "Space Health Clubs", "Description": "Health and Fitness Centres and Gymnasia Operation", "Suburb": "Melbourne (CBD)", "latitude": -37.810658, "longitude": 144.9657034, "Group": "Fitness"}, {"Name": "Genesis", "Description": "Health and Fitness Centres and Gymnasia Operation", "Suburb": "Melbourne (CBD)", "latitude": -37.8091842, "longitude": 144.9707325, "Group": "Fitness"}, {"Name": "Southern Pacific Health Clubs", "Description": "Health and Fitness Centres and Gymnasia Operation", "Suburb": "Melbourne (CBD)", "latitude": -37.81531863, "longitude": 144.9573923, "Group": "Fitness"}, {"Name": "Sure Slim Wellness Clinic Pty Ltd", "Description": "Diet and Weight Reduction Centre Operation", "Suburb": "Melbourne (CBD)", "latitude": -37.81601764, "longitude": 144.962689, "Group": "Fitness"}, {"Name": "Integrated Life Solutions", "Description": "Health and Fitness Centres and Gymnasia Operation", "Suburb": "Melbourne (CBD)", "latitude": -37.81660734, "longitude": 144.95955, "Group": "Fitness"}, {"Name": "Health by Design", "Description": "Health and Fitness Centres and Gymnasia Operation", "Suburb": "Melbourne (CBD)", "latitude": -37.81372701, "longitude": 144.9737201, "Group": "Fitness"}, {"Name": "Fitness First Australia ", "Description": "Health and Fitness Centres and Gymnasia Operation", "Suburb": "Melbourne (CBD)", "latitude": -37.8144328, "longitude": 144.9636622, "Group": "Fitness"}, {"Name": "Studio Cirq", "Description": "Health and Fitness Centres and Gymnasia Operation", "Suburb": "Melbourne (CBD)", "latitude": -37.8121518, "longitude": 144.9721078, "Group": "Fitness"}, {"Name": "Japanese Cafe Hoya", "Description": "Diet and Weight Reduction Centre Operation", "Suburb": "Melbourne (CBD)", "latitude": -37.81625435, "longitude": 144.9532987, "Group": "Fitness"}, {"Name": "North Melbourne Boxing & Fitness Centre", "Description": "Health and Fitness Centres and Gymnasia Operation", "Suburb": "North Melbourne", "latitude": -37.7916558, "longitude": 144.937872, "Group": "Fitness"}, {"Name": "Corporate Fitness Club", "Description": "Health and Fitness Centres and Gymnasia Operation", "Suburb": "Melbourne (CBD)", "latitude": -37.81771479, "longitude": 144.9637238, "Group": "Fitness"}, {"Name": "Fernwood Women's Health Club", "Description": "Health and Fitness Centres and Gymnasia Operation", "Suburb": "Carlton", "latitude": -37.79559865, "longitude": 144.9749525, "Group": "Fitness"}, {"Name": "Doctors Concept Clinic Francaise", "Description": "Diet and Weight Reduction Centre Operation", "Suburb": "Melbourne (CBD)", "latitude": -37.81264684, "longitude": 144.9677867, "Group": "Fitness"}, {"Name": "Align Fitness", "Description": "Health and Fitness Centres and Gymnasia Operation", "Suburb": "Southbank", "latitude": -37.83070462, "longitude": 144.9662961, "Group": "Fitness"}, {"Name": "API Leisure & Lifestyle", "Description": "Health and Fitness Centres and Gymnasia Operation", "Suburb": "Melbourne (CBD)", "latitude": -37.80941489, "longitude": 144.9699756, "Group": "Fitness"}, {"Name": "The World Wing Chun Kung Fu Academy", "Description": "Health and Fitness Centres and Gymnasia Operation", "Suburb": "Melbourne (CBD)", "latitude": -37.8109979, "longitude": 144.9683249, "Group": "Fitness"}, {"Name": "2-Good Personal Trainers", "Description": "Health and Fitness Centres and Gymnasia Operation", "Suburb": "Melbourne (Remainder)", "latitude": -37.83570366, "longitude": 144.9760426, "Group": "Fitness"}, {"Name": "Fernwood Women's Health Club", "Description": "Health and Fitness Centres and Gymnasia Operation", "Suburb": "Carlton", "latitude": -37.79559865, "longitude": 144.9749525, "Group": "Fitness"}, {"Name": "Weight Watchers", "Description": "Diet and Weight Reduction Centre Operation", "Suburb": "Melbourne (CBD)", "latitude": -37.8163275, "longitude": 144.9666228, "Group": "Fitness"}, {"Name": "Docklands Gym", "Description": "Health and Fitness Centres and Gymnasia Operation", "Suburb": "Docklands", "latitude": -37.82253633, "longitude": 144.9536422, "Group": "Fitness"}, {"Name": "RMIT Union Fitness Centre", "Description": "Health and Fitness Centres and Gymnasia Operation", "Suburb": "Melbourne (CBD)", "latitude": -37.80818365, "longitude": 144.9645504, "Group": "Fitness"}, {"Name": "Vibromania", "Description": "Health and Fitness Centres and Gymnasia Operation", "Suburb": "Docklands", "latitude": -37.81925128, "longitude": 144.9479753, "Group": "Fitness"}, {"Name": "Nirvana Day Spa", "Description": "Health and Fitness Centres and Gymnasia Operation", "Suburb": "Melbourne (CBD)", "latitude": -37.8144328, "longitude": 144.9636622, "Group": "Fitness"}, {"Name": "Fitness First", "Description": "Health and Fitness Centres and Gymnasia Operation", "Suburb": "Melbourne (CBD)", "latitude": -37.8144328, "longitude": 144.9636622, "Group": "Fitness"}, {"Name": "Matrix", "Description": "Health and Fitness Centres and Gymnasia Operation", "Suburb": "Melbourne (CBD)", "latitude": -37.81386024, "longitude": 144.9654075, "Group": "Fitness"}, {"Name": "Zap Fitness", "Description": "Health and Fitness Centres and Gymnasia Operation", "Suburb": "Carlton", "latitude": -37.80688338, "longitude": 144.9679739, "Group": "Fitness"}, {"Name": "Shapes Health and Fitness", "Description": "Health and Fitness Centres and Gymnasia Operation", "Suburb": "Melbourne (CBD)", "latitude": -37.81953163, "longitude": 144.9622868, "Group": "Fitness"}, {"Name": "Fernwood Women's Health Club", "Description": "Health and Fitness Centres and Gymnasia Operation", "Suburb": "Carlton", "latitude": -37.79559865, "longitude": 144.9749525, "Group": "Fitness"}, {"Name": "Corporate Fitness Club", "Description": "Health and Fitness Centres and Gymnasia Operation", "Suburb": "Melbourne (CBD)", "latitude": -37.81771479, "longitude": 144.9637238, "Group": "Fitness"}, {"Name": "Fitness HQ Pty Ltd", "Description": "Health and Fitness Centres and Gymnasia Operation", "Suburb": "Melbourne (CBD)", "latitude": -37.81946849, "longitude": 144.9586012, "Group": "Fitness"}, {"Name": "Equilibrium Health And Fitness", "Description": "Health and Fitness Centres and Gymnasia Operation", "Suburb": "North Melbourne", "latitude": -37.80447671, "longitude": 144.9490146, "Group": "Fitness"}, {"Name": "Jenny Craig ", "Description": "Diet and Weight Reduction Centre Operation", "Suburb": "Melbourne (CBD)", "latitude": -37.8153942, "longitude": 144.9659697, "Group": "Fitness"}, {"Name": "Asian Pacific Health Club", "Description": "Health and Fitness Centres and Gymnasia Operation", "Suburb": "Melbourne (CBD)", "latitude": -37.81686865, "longitude": 144.957088, "Group": "Fitness"}, {"Name": "Genesis Fitness", "Description": "Health and Fitness Centres and Gymnasia Operation", "Suburb": "Southbank", "latitude": -37.82221927, "longitude": 144.962643, "Group": "Fitness"}, {"Name": "Aline Pilates", "Description": "Health and Fitness Centres and Gymnasia Operation", "Suburb": "Carlton", "latitude": -37.80409517, "longitude": 144.9674084, "Group": "Fitness"}, {"Name": "Lifestyle Fitness ", "Description": "Health and Fitness Centres and Gymnasia Operation", "Suburb": "Melbourne (CBD)", "latitude": -37.80992238, "longitude": 144.9670695, "Group": "Fitness"}, {"Name": "Fernwood Women's Health Club", "Description": "Health and Fitness Centres and Gymnasia Operation", "Suburb": "Melbourne (CBD)", "latitude": -37.81936891, "longitude": 144.9581001, "Group": "Fitness"}, {"Name": "Corporate Health Clubs", "Description": "Health and Fitness Centres and Gymnasia Operation", "Suburb": "Melbourne (CBD)", "latitude": -37.81430616, "longitude": 144.9726281, "Group": "Fitness"}, {"Name": "Aligned For Life Pilates ", "Description": "Health and Fitness Centres and Gymnasia Operation", "Suburb": "Southbank", "latitude": -37.82446912, "longitude": 144.9694673, "Group": "Fitness"}]
