[{"Name": "Bergerac Restaurant", "Description": "Cafes and Restaurants", "Suburb": "Melbourne (CBD)", "latitude": -37.81708323, "longitude": 144.9555039, "Group": "Food"}, {"Name": "O Sushi", "Description": "Takeaway Food Services", "Suburb": "Melbourne (CBD)", "latitude": -37.81310923, "longitude": 144.9679684, "Group": "Food"}, {"Name": "Cafe Tono", "Description": "Cafes and Restaurants", "Suburb": "Melbourne (CBD)", "latitude": -37.81310923, "longitude": 144.9679684, "Group": "Food"}, {"Name": "Teppenyaki Inn", "Description": "Cafes and Restaurants", "Suburb": "Melbourne (CBD)", "latitude": -37.81479918, "longitude": 144.9674537, "Group": "Food"}, {"Name": "Hairy Canary", "Description": "Cafes and Restaurants", "Suburb": "Melbourne (CBD)", "latitude": -37.81384227, "longitude": 144.9671568, "Group": "Food"}, {"Name": "Stellini Bar", "Description": "Takeaway Food Services", "Suburb": "Melbourne (CBD)", "latitude": -37.81384227, "longitude": 144.9671568, "Group": "Food"}, {"Name": "Buffet Brasserie", "Description": "Cafes and Restaurants", "Suburb": "Melbourne (CBD)", "latitude": -37.81805379, "longitude": 144.964041, "Group": "Food"}, {"Name": "Mango Cafe", "Description": "Cafes and Restaurants", "Suburb": "Melbourne (CBD)", "latitude": -37.81819275, "longitude": 144.9625299, "Group": "Food"}, {"Name": "The Overdraft Deli", "Description": "Cafes and Restaurants", "Suburb": "Melbourne (CBD)", "latitude": -37.81728432, "longitude": 144.9624418, "Group": "Food"}, {"Name": "Il Solito Posto", "Description": "Cafes and Restaurants", "Suburb": "Melbourne (CBD)", "latitude": -37.81468591, "longitude": 144.9702598, "Group": "Food"}, {"Name": "Queens Kebabs", "Description": "Takeaway Food Services", "Suburb": "Melbourne (CBD)", "latitude": -37.81952934, "longitude": 144.957466, "Group": "Food"}, {"Name": "Reset Cafe", "Description": "Cafes and Restaurants", "Suburb": "Melbourne (Remainder)", "latitude": -37.84607473, "longitude": 144.9800592, "Group": "Food"}, {"Name": "Cafe Ella", "Description": "Cafes and Restaurants", "Suburb": "Melbourne (Remainder)", "latitude": -37.84685298, "longitude": 144.9803782, "Group": "Food"}, {"Name": "Le Croissant Connection", "Description": "Takeaway Food Services", "Suburb": "Melbourne (CBD)", "latitude": -37.81536587, "longitude": 144.9648999, "Group": "Food"}, {"Name": "Nando's", "Description": "Cafes and Restaurants", "Suburb": "Melbourne (CBD)", "latitude": -37.81536587, "longitude": 144.9648999, "Group": "Food"}, {"Name": "Yori Yori ", "Description": "Takeaway Food Services", "Suburb": "Melbourne (CBD)", "latitude": -37.81536587, "longitude": 144.9648999, "Group": "Food"}, {"Name": "North End Deli", "Description": "Cafes and Restaurants", "Suburb": "North Melbourne", "latitude": -37.79557663, "longitude": 144.938198, "Group": "Food"}, {"Name": "Hellens MacAulay Road Takeaway", "Description": "Takeaway Food Services", "Suburb": "Kensington", "latitude": -37.794995, "longitude": 144.9327735, "Group": "Food"}, {"Name": "Chook Stop", "Description": "Takeaway Food Services", "Suburb": "Kensington", "latitude": -37.79455811, "longitude": 144.9295071, "Group": "Food"}, {"Name": "Kensington Fish Shop", "Description": "Takeaway Food Services", "Suburb": "Kensington", "latitude": -37.79452502, "longitude": 144.9293517, "Group": "Food"}, {"Name": "The Baked Potato", "Description": "Cafes and Restaurants", "Suburb": "Carlton", "latitude": -37.80443778, "longitude": 144.9666993, "Group": "Food"}, {"Name": "Thai Taste Restaurant", "Description": "Cafes and Restaurants", "Suburb": "Carlton", "latitude": -37.80443778, "longitude": 144.9666993, "Group": "Food"}, {"Name": "Satya's", "Description": "Cafes and Restaurants", "Suburb": "Carlton", "latitude": -37.80443778, "longitude": 144.9666993, "Group": "Food"}, {"Name": "Cafe Fawkner", "Description": "Cafes and Restaurants", "Suburb": "South Yarra", "latitude": -37.83804253, "longitude": 144.9800012, "Group": "Food"}, {"Name": "Cafe Six Two", "Description": "Cafes and Restaurants", "Suburb": "Carlton", "latitude": -37.80566982, "longitude": 144.9664413, "Group": "Food"}, {"Name": "Il Primo", "Description": "Cafes and Restaurants", "Suburb": "Carlton", "latitude": -37.80151178, "longitude": 144.9672606, "Group": "Food"}, {"Name": "Piccolo Mondo", "Description": "Cafes and Restaurants", "Suburb": "Carlton", "latitude": -37.80158026, "longitude": 144.9672464, "Group": "Food"}, {"Name": "Spaghettata Restaurant", "Description": "Cafes and Restaurants", "Suburb": "Carlton", "latitude": -37.80162591, "longitude": 144.9672365, "Group": "Food"}, {"Name": "Via Veneto", "Description": "Cafes and Restaurants", "Suburb": "Carlton", "latitude": -37.80169334, "longitude": 144.9672291, "Group": "Food"}, {"Name": "Sale E Pepe", "Description": "Cafes and Restaurants", "Suburb": "Carlton", "latitude": -37.80175883, "longitude": 144.9672175, "Group": "Food"}, {"Name": "Poppy's Thai Restaurant", "Description": "Cafes and Restaurants", "Suburb": "Carlton", "latitude": -37.80180395, "longitude": 144.9672092, "Group": "Food"}, {"Name": "Irmas Bar & Charcoal Grill", "Description": "Cafes and Restaurants", "Suburb": "Carlton", "latitude": -37.80191702, "longitude": 144.9671892, "Group": "Food"}, {"Name": "Lemongrass", "Description": "Cafes and Restaurants", "Suburb": "Carlton", "latitude": -37.80305855, "longitude": 144.96678, "Group": "Food"}, {"Name": "Santino's Terrace Pty Ltd", "Description": "Cafes and Restaurants", "Suburb": "Carlton", "latitude": -37.803305, "longitude": 144.9668138, "Group": "Food"}, {"Name": "Sabatini's Grill", "Description": "Cafes and Restaurants", "Suburb": "Carlton", "latitude": -37.80344164, "longitude": 144.9667699, "Group": "Food"}, {"Name": "Bernardi's Family Trattoria", "Description": "Cafes and Restaurants", "Suburb": "Carlton", "latitude": -37.80359309, "longitude": 144.9667447, "Group": "Food"}, {"Name": "Pasta Rustica Ristorante", "Description": "Cafes and Restaurants", "Suburb": "Carlton", "latitude": -37.80366897, "longitude": 144.966737, "Group": "Food"}, {"Name": "La Notte Cafe", "Description": "Cafes and Restaurants", "Suburb": "Carlton", "latitude": -37.803783, "longitude": 144.9667231, "Group": "Food"}, {"Name": "La Spaghetteria Ristorante", "Description": "Cafes and Restaurants", "Suburb": "Carlton", "latitude": -37.80395783, "longitude": 144.966693, "Group": "Food"}, {"Name": "Jimmy's The Original", "Description": "Cafes and Restaurants", "Suburb": "Carlton", "latitude": -37.80403393, "longitude": 144.9666832, "Group": "Food"}, {"Name": "Balti Indian Cafe", "Description": "Cafes and Restaurants", "Suburb": "Carlton", "latitude": -37.80443778, "longitude": 144.9666993, "Group": "Food"}, {"Name": "Bubble Tea Restaurant", "Description": "Cafes and Restaurants", "Suburb": "Carlton", "latitude": -37.80443778, "longitude": 144.9666993, "Group": "Food"}, {"Name": "Lygon Charcoal Grill & Steakhouse", "Description": "Cafes and Restaurants", "Suburb": "Carlton", "latitude": -37.80443778, "longitude": 144.9666993, "Group": "Food"}, {"Name": "Casa Malaya", "Description": "Cafes and Restaurants", "Suburb": "Carlton", "latitude": -37.80443778, "longitude": 144.9666993, "Group": "Food"}, {"Name": "Cafe Trevi", "Description": "Cafes and Restaurants", "Suburb": "Carlton", "latitude": -37.80004498, "longitude": 144.9673485, "Group": "Food"}, {"Name": "Marcolin's @ 292", "Description": "Cafes and Restaurants", "Suburb": "Carlton", "latitude": -37.80013942, "longitude": 144.9673338, "Group": "Food"}, {"Name": "Alpino Restaurant", "Description": "Cafes and Restaurants", "Suburb": "Carlton", "latitude": -37.80103476, "longitude": 144.9671843, "Group": "Food"}, {"Name": "Gurkhas", "Description": "Cafes and Restaurants", "Suburb": "Carlton", "latitude": -37.80113981, "longitude": 144.9671684, "Group": "Food"}, {"Name": "Il Gusto", "Description": "Cafes and Restaurants", "Suburb": "Carlton", "latitude": -37.80118693, "longitude": 144.9671605, "Group": "Food"}, {"Name": "Thai Influence Noodle Bar", "Description": "Cafes and Restaurants", "Suburb": "Carlton", "latitude": -37.80123703, "longitude": 144.9671514, "Group": "Food"}, {"Name": "Villa Romana", "Description": "Cafes and Restaurants", "Suburb": "Carlton", "latitude": -37.80137656, "longitude": 144.9673242, "Group": "Food"}, {"Name": "The Connoisseurs Cafe Bar", "Description": "Cafes and Restaurants", "Suburb": "Carlton", "latitude": -37.79803089, "longitude": 144.9681789, "Group": "Food"}, {"Name": "Viva Juice", "Description": "Takeaway Food Services", "Suburb": "Carlton", "latitude": -37.79900008, "longitude": 144.9675043, "Group": "Food"}, {"Name": "Key On The Wall Restaurant", "Description": "Cafes and Restaurants", "Suburb": "Carlton", "latitude": -37.79916379, "longitude": 144.9674929, "Group": "Food"}, {"Name": "Simply Fresh Healthy Foods", "Description": "Takeaway Food Services", "Suburb": "Carlton", "latitude": -37.79932164, "longitude": 144.9674735, "Group": "Food"}, {"Name": "Copperwood", "Description": "Cafes and Restaurants", "Suburb": "Carlton", "latitude": -37.79962339, "longitude": 144.9676, "Group": "Food"}, {"Name": "Dimattina's Restaurant Bar", "Description": "Cafes and Restaurants", "Suburb": "Carlton", "latitude": -37.79978612, "longitude": 144.9674164, "Group": "Food"}, {"Name": "Dion", "Description": "Cafes and Restaurants", "Suburb": "Melbourne (CBD)", "latitude": -37.81133175, "longitude": 144.9663534, "Group": "Food"}, {"Name": "Trotters Restaurant", "Description": "Cafes and Restaurants", "Suburb": "Carlton", "latitude": -37.79763393, "longitude": 144.9677565, "Group": "Food"}, {"Name": "Pellaroma", "Description": "Cafes and Restaurants", "Suburb": "Southbank", "latitude": -37.82221927, "longitude": 144.962643, "Group": "Food"}, {"Name": "Red Engine Cafe", "Description": "Takeaway Food Services", "Suburb": "Melbourne (CBD)", "latitude": -37.81866105, "longitude": 144.9654659, "Group": "Food"}, {"Name": "Portello Rosso Pizzeria & Jamon Bar", "Description": "Cafes and Restaurants", "Suburb": "Melbourne (CBD)", "latitude": -37.81381239, "longitude": 144.9618462, "Group": "Food"}, {"Name": "Three Below", "Description": "Cafes and Restaurants", "Suburb": "Melbourne (CBD)", "latitude": -37.81584777, "longitude": 144.9674304, "Group": "Food"}, {"Name": "Caboose Restaurant & Bar", "Description": "Cafes and Restaurants", "Suburb": "Melbourne (CBD)", "latitude": -37.81584777, "longitude": 144.9674304, "Group": "Food"}, {"Name": "Tempting Pizza & Pasta", "Description": "Takeaway Food Services", "Suburb": "Melbourne (CBD)", "latitude": -37.810658, "longitude": 144.9657034, "Group": "Food"}, {"Name": "Trilogy", "Description": "Cafes and Restaurants", "Suburb": "Melbourne (CBD)", "latitude": -37.810658, "longitude": 144.9657034, "Group": "Food"}, {"Name": "Chocolateria San Churro QV", "Description": "Cafes and Restaurants", "Suburb": "Melbourne (CBD)", "latitude": -37.810658, "longitude": 144.9657034, "Group": "Food"}, {"Name": "Squisito Bar", "Description": "Cafes and Restaurants", "Suburb": "Melbourne (CBD)", "latitude": -37.810658, "longitude": 144.9657034, "Group": "Food"}, {"Name": "Hans Brinker Pancakes", "Description": "Takeaway Food Services", "Suburb": "Melbourne (CBD)", "latitude": -37.810658, "longitude": 144.9657034, "Group": "Food"}, {"Name": "Blackjack ", "Description": "Cafes and Restaurants", "Suburb": "Melbourne (CBD)", "latitude": -37.81608475, "longitude": 144.95526, "Group": "Food"}, {"Name": "Torimatsu Japanese Restaurant", "Description": "Cafes and Restaurants", "Suburb": "Melbourne (CBD)", "latitude": -37.81596556, "longitude": 144.9552051, "Group": "Food"}, {"Name": "Melbourne Pizza Bar", "Description": "Cafes and Restaurants", "Suburb": "Melbourne (CBD)", "latitude": -37.81589843, "longitude": 144.9551743, "Group": "Food"}, {"Name": "King Jons", "Description": "Cafes and Restaurants", "Suburb": "Melbourne (CBD)", "latitude": -37.81584127, "longitude": 144.9551492, "Group": "Food"}, {"Name": "Hanabishi Japanese Restaurant", "Description": "Cafes and Restaurants", "Suburb": "Melbourne (CBD)", "latitude": -37.81579101, "longitude": 144.9551249, "Group": "Food"}, {"Name": "Bug Bar", "Description": "Cafes and Restaurants", "Suburb": "Melbourne (CBD)", "latitude": -37.81538904, "longitude": 144.9549691, "Group": "Food"}, {"Name": "Melbourne Oyster Bar", "Description": "Cafes and Restaurants", "Suburb": "Melbourne (CBD)", "latitude": -37.81529895, "longitude": 144.9549266, "Group": "Food"}, {"Name": "Kings Takeaway", "Description": "Takeaway Food Services", "Suburb": "Melbourne (CBD)", "latitude": -37.81514931, "longitude": 144.9548584, "Group": "Food"}, {"Name": "Al Capone's Pizzeria", "Description": "Cafes and Restaurants", "Suburb": "Kensington", "latitude": -37.79170781, "longitude": 144.9194456, "Group": "Food"}, {"Name": "Chicky Babes", "Description": "Cafes and Restaurants", "Suburb": "Melbourne (CBD)", "latitude": -37.81240787, "longitude": 144.9605306, "Group": "Food"}, {"Name": "Australia Post Coffee Shop", "Description": "Takeaway Food Services", "Suburb": "Melbourne (CBD)", "latitude": -37.80864972, "longitude": 144.9684259, "Group": "Food"}, {"Name": "Sprout", "Description": "Takeaway Food Services", "Suburb": "Melbourne (CBD)", "latitude": -37.81556036, "longitude": 144.9619481, "Group": "Food"}, {"Name": "Spontini Restaurant", "Description": "Cafes and Restaurants", "Suburb": "Melbourne (CBD)", "latitude": -37.81514598, "longitude": 144.9618186, "Group": "Food"}, {"Name": "Cafe Dominoes", "Description": "Cafes and Restaurants", "Suburb": "Melbourne (CBD)", "latitude": -37.81427826, "longitude": 144.9566434, "Group": "Food"}, {"Name": "De Lacy Restaurant", "Description": "Cafes and Restaurants", "Suburb": "Melbourne (CBD)", "latitude": -37.81302037, "longitude": 144.9612978, "Group": "Food"}, {"Name": "Von's Restaurant", "Description": "Cafes and Restaurants", "Suburb": "Melbourne (CBD)", "latitude": -37.8130703, "longitude": 144.9611061, "Group": "Food"}, {"Name": "Il Nostro Posto", "Description": "Cafes and Restaurants", "Suburb": "Melbourne (CBD)", "latitude": -37.81328955, "longitude": 144.961215, "Group": "Food"}, {"Name": "Cafe Max", "Description": "Cafes and Restaurants", "Suburb": "Melbourne (CBD)", "latitude": -37.81339488, "longitude": 144.9612623, "Group": "Food"}, {"Name": "Janil's Cafe", "Description": "Cafes and Restaurants", "Suburb": "Melbourne (CBD)", "latitude": -37.81423688, "longitude": 144.9700079, "Group": "Food"}, {"Name": "Edoya Japanese Restaurant", "Description": "Cafes and Restaurants", "Suburb": "Melbourne (CBD)", "latitude": -37.81298798, "longitude": 144.9684168, "Group": "Food"}, {"Name": "Taco Bill's Restaurant", "Description": "Cafes and Restaurants", "Suburb": "Melbourne (CBD)", "latitude": -37.81298798, "longitude": 144.9684168, "Group": "Food"}, {"Name": "Kimchi Grandma BBQ", "Description": "Cafes and Restaurants", "Suburb": "Melbourne (CBD)", "latitude": -37.81278439, "longitude": 144.9690422, "Group": "Food"}, {"Name": "Centro Citta Restaurant", "Description": "Cafes and Restaurants", "Suburb": "Melbourne (CBD)", "latitude": -37.81279907, "longitude": 144.9691653, "Group": "Food"}, {"Name": "Bistro 1", "Description": "Cafes and Restaurants", "Suburb": "Melbourne (CBD)", "latitude": -37.8130107, "longitude": 144.9694638, "Group": "Food"}, {"Name": "Zoe's Fine Foods", "Description": "Cafes and Restaurants", "Suburb": "Melbourne (CBD)", "latitude": -37.81301654, "longitude": 144.9554126, "Group": "Food"}, {"Name": "Cii Cafe Bar", "Description": "Cafes and Restaurants", "Suburb": "Melbourne (CBD)", "latitude": -37.81299012, "longitude": 144.9555039, "Group": "Food"}, {"Name": "Rue Bebelons", "Description": "Cafes and Restaurants", "Suburb": "Melbourne (CBD)", "latitude": -37.81076317, "longitude": 144.9640475, "Group": "Food"}, {"Name": "Don Don Japanese Takeaway", "Description": "Takeaway Food Services", "Suburb": "Melbourne (CBD)", "latitude": -37.81076317, "longitude": 144.9640475, "Group": "Food"}, {"Name": "China Express", "Description": "Takeaway Food Services", "Suburb": "Melbourne (CBD)", "latitude": -37.81076317, "longitude": 144.9640475, "Group": "Food"}, {"Name": "Sahara Kitchen & Bar", "Description": "Cafes and Restaurants", "Suburb": "Melbourne (CBD)", "latitude": -37.81107765, "longitude": 144.9641938, "Group": "Food"}, {"Name": "Lonsdale Chinese Restaurant", "Description": "Cafes and Restaurants", "Suburb": "Melbourne (CBD)", "latitude": -37.81152964, "longitude": 144.9639969, "Group": "Food"}, {"Name": "Cafe Maschera", "Description": "Cafes and Restaurants", "Suburb": "Melbourne (CBD)", "latitude": -37.81491966, "longitude": 144.9559421, "Group": "Food"}, {"Name": "Cafe  Leventi", "Description": "Cafes and Restaurants", "Suburb": "Melbourne (CBD)", "latitude": -37.81275166, "longitude": 144.9549514, "Group": "Food"}, {"Name": "Nick's Spaghetti Bar", "Description": "Cafes and Restaurants", "Suburb": "Melbourne (CBD)", "latitude": -37.81386782, "longitude": 144.9557716, "Group": "Food"}, {"Name": "Georges On Lonsdale", "Description": "Cafes and Restaurants", "Suburb": "Melbourne (CBD)", "latitude": -37.81385045, "longitude": 144.9558779, "Group": "Food"}, {"Name": "The PRecinct", "Description": "Cafes and Restaurants", "Suburb": "Melbourne (CBD)", "latitude": -37.81311232, "longitude": 144.9563971, "Group": "Food"}, {"Name": "Hudsons Coffee", "Description": "Takeaway Food Services", "Suburb": "Melbourne (CBD)", "latitude": -37.81383756, "longitude": 144.9733552, "Group": "Food"}, {"Name": "Russells Old Corner Shop Luncheon Room", "Description": "Cafes and Restaurants", "Suburb": "Melbourne (CBD)", "latitude": -37.8125542, "longitude": 144.9542466, "Group": "Food"}, {"Name": "Cafe Sonnex", "Description": "Cafes and Restaurants", "Suburb": "Melbourne (CBD)", "latitude": -37.81261513, "longitude": 144.9542745, "Group": "Food"}]
