[{"Name": "Melrose Street Laundrette", "Description": "Laundry and Dry-Cleaning Services", "Suburb": "North Melbourne", "latitude": -37.79093071, "longitude": 144.9429184, "Group": "Laundry and Dry-Cleaning Services"}, {"Name": "Dial-A Laundry", "Description": "Laundry and Dry-Cleaning Services", "Suburb": "North Melbourne", "latitude": -37.79093071, "longitude": 144.9429184, "Group": "Laundry and Dry-Cleaning Services"}, {"Name": "Brown Gouge Dry Cleaning", "Description": "Laundry and Dry-Cleaning Services", "Suburb": "Docklands", "latitude": -37.82044558, "longitude": 144.9434599, "Group": "Laundry and Dry-Cleaning Services"}, {"Name": "The Spin Inn & Expert Shoe Repairs", "Description": "Laundry and Dry-Cleaning Services", "Suburb": "Melbourne (Remainder)", "latitude": -37.83570366, "longitude": 144.9760426, "Group": "Laundry and Dry-Cleaning Services"}, {"Name": "One Stop Shop", "Description": "Laundry and Dry-Cleaning Services", "Suburb": "Melbourne (Remainder)", "latitude": -37.83570366, "longitude": 144.9760426, "Group": "Laundry and Dry-Cleaning Services"}, {"Name": "Sturt Street Laudry", "Description": "Laundry and Dry-Cleaning Services", "Suburb": "Melbourne (CBD)", "latitude": -37.8186626, "longitude": 144.957551, "Group": "Laundry and Dry-Cleaning Services"}, {"Name": "Renes Drycleaning", "Description": "Laundry and Dry-Cleaning Services", "Suburb": "Melbourne (CBD)", "latitude": -37.81492031, "longitude": 144.9707498, "Group": "Laundry and Dry-Cleaning Services"}, {"Name": "Sturt Street Laundry", "Description": "Laundry and Dry-Cleaning Services", "Suburb": "Southbank", "latitude": -37.82792117, "longitude": 144.9667192, "Group": "Laundry and Dry-Cleaning Services"}, {"Name": "Ruggles Drycleaning", "Description": "Laundry and Dry-Cleaning Services", "Suburb": "Melbourne (CBD)", "latitude": -37.81850425, "longitude": 144.954944, "Group": "Laundry and Dry-Cleaning Services"}, {"Name": "Parkville Laundrette", "Description": "Laundry and Dry-Cleaning Services", "Suburb": "Parkville", "latitude": -37.79463242, "longitude": 144.9557198, "Group": "Laundry and Dry-Cleaning Services"}, {"Name": "Flinders Lane Drycleaners", "Description": "Laundry and Dry-Cleaning Services", "Suburb": "Melbourne (CBD)", "latitude": -37.81604801, "longitude": 144.9689986, "Group": "Laundry and Dry-Cleaning Services"}, {"Name": "Gregorys Shoe Repairs & Drycleaning", "Description": "Laundry and Dry-Cleaning Services", "Suburb": "Melbourne (CBD)", "latitude": -37.80941489, "longitude": 144.9699756, "Group": "Laundry and Dry-Cleaning Services"}, {"Name": "Brown Gouge Drycleaning", "Description": "Laundry and Dry-Cleaning Services", "Suburb": "Carlton", "latitude": -37.79920234, "longitude": 144.9668872, "Group": "Laundry and Dry-Cleaning Services"}, {"Name": "Haines Street Laundrette", "Description": "Laundry and Dry-Cleaning Services", "Suburb": "North Melbourne", "latitude": -37.79823272, "longitude": 144.9466965, "Group": "Laundry and Dry-Cleaning Services"}, {"Name": "John Gleeson", "Description": "Laundry and Dry-Cleaning Services", "Suburb": "Southbank", "latitude": -37.82792117, "longitude": 144.9667192, "Group": "Laundry and Dry-Cleaning Services"}, {"Name": "Brown Gouge Drycleaning", "Description": "Laundry and Dry-Cleaning Services", "Suburb": "Carlton", "latitude": -37.79920234, "longitude": 144.9668872, "Group": "Laundry and Dry-Cleaning Services"}, {"Name": "Delux Drycleaners", "Description": "Laundry and Dry-Cleaning Services", "Suburb": "Melbourne (CBD)", "latitude": -37.81494883, "longitude": 144.9587607, "Group": "Laundry and Dry-Cleaning Services"}, {"Name": "Hi Clean", "Description": "Laundry and Dry-Cleaning Services", "Suburb": "Melbourne (CBD)", "latitude": -37.81416355, "longitude": 144.9617562, "Group": "Laundry and Dry-Cleaning Services"}, {"Name": "Rose Garden Valet", "Description": "Laundry and Dry-Cleaning Services", "Suburb": "Melbourne (CBD)", "latitude": -37.81398457, "longitude": 144.9693797, "Group": "Laundry and Dry-Cleaning Services"}, {"Name": "Sturt Street Laundry", "Description": "Laundry and Dry-Cleaning Services", "Suburb": "Southbank", "latitude": -37.82792117, "longitude": 144.9667192, "Group": "Laundry and Dry-Cleaning Services"}, {"Name": "Bayside Dry Cleaners", "Description": "Laundry and Dry-Cleaning Services", "Suburb": "East Melbourne", "latitude": -37.81618515, "longitude": 144.9855915, "Group": "Laundry and Dry-Cleaning Services"}, {"Name": "Lyn Drycleaners", "Description": "Laundry and Dry-Cleaning Services", "Suburb": "West Melbourne (Residential)", "latitude": -37.8055071, "longitude": 144.9498796, "Group": "Laundry and Dry-Cleaning Services"}, {"Name": "The Happy Hanger", "Description": "Laundry and Dry-Cleaning Services", "Suburb": "North Melbourne", "latitude": -37.80420164, "longitude": 144.9497236, "Group": "Laundry and Dry-Cleaning Services"}, {"Name": "City Edge Coin Laundry", "Description": "Laundry and Dry-Cleaning Services", "Suburb": "North Melbourne", "latitude": -37.80407342, "longitude": 144.949094, "Group": "Laundry and Dry-Cleaning Services"}, {"Name": "Wash & Dry", "Description": "Laundry and Dry-Cleaning Services", "Suburb": "Carlton", "latitude": -37.79743964, "longitude": 144.9725159, "Group": "Laundry and Dry-Cleaning Services"}, {"Name": "Laundrette", "Description": "Laundry and Dry-Cleaning Services", "Suburb": "Carlton", "latitude": -37.79790085, "longitude": 144.9724194, "Group": "Laundry and Dry-Cleaning Services"}, {"Name": "Hotapress Pty Ltd", "Description": "Laundry and Dry-Cleaning Services", "Suburb": "Carlton", "latitude": -37.7998129, "longitude": 144.9691326, "Group": "Laundry and Dry-Cleaning Services"}, {"Name": "Domain Drycleaning", "Description": "Laundry and Dry-Cleaning Services", "Suburb": "South Yarra", "latitude": -37.8343508, "longitude": 144.9822675, "Group": "Laundry and Dry-Cleaning Services"}, {"Name": "Parkville Laundrette", "Description": "Laundry and Dry-Cleaning Services", "Suburb": "Parkville", "latitude": -37.79463242, "longitude": 144.9557198, "Group": "Laundry and Dry-Cleaning Services"}, {"Name": "Brown Gouge Valet Pty Limited", "Description": "Laundry and Dry-Cleaning Services", "Suburb": "North Melbourne", "latitude": -37.80473977, "longitude": 144.948124, "Group": "Laundry and Dry-Cleaning Services"}, {"Name": "Haines Street Laundrette", "Description": "Laundry and Dry-Cleaning Services", "Suburb": "North Melbourne", "latitude": -37.79823272, "longitude": 144.9466965, "Group": "Laundry and Dry-Cleaning Services"}, {"Name": "Melbourne City Drycleaners", "Description": "Laundry and Dry-Cleaning Services", "Suburb": "Melbourne (CBD)", "latitude": -37.81047422, "longitude": 144.9673261, "Group": "Laundry and Dry-Cleaning Services"}, {"Name": "Truecare", "Description": "Laundry and Dry-Cleaning Services", "Suburb": "Southbank", "latitude": -37.82066923, "longitude": 144.9662623, "Group": "Laundry and Dry-Cleaning Services"}, {"Name": "Michael's Shoe Repairs", "Description": "Laundry and Dry-Cleaning Services", "Suburb": "Melbourne (CBD)", "latitude": -37.81170307, "longitude": 144.9697778, "Group": "Laundry and Dry-Cleaning Services"}, {"Name": "New Court Drycleaners", "Description": "Laundry and Dry-Cleaning Services", "Suburb": "Melbourne (CBD)", "latitude": -37.81430616, "longitude": 144.9726281, "Group": "Laundry and Dry-Cleaning Services"}, {"Name": "Elite Drycleaners", "Description": "Laundry and Dry-Cleaning Services", "Suburb": "Melbourne (CBD)", "latitude": -37.81491502, "longitude": 144.9629442, "Group": "Laundry and Dry-Cleaning Services"}, {"Name": "Gregorys Shoe Repairs & Drycleaning", "Description": "Laundry and Dry-Cleaning Services", "Suburb": "Melbourne (CBD)", "latitude": -37.80941489, "longitude": 144.9699756, "Group": "Laundry and Dry-Cleaning Services"}, {"Name": "Renes Drycleaning", "Description": "Laundry and Dry-Cleaning Services", "Suburb": "Melbourne (CBD)", "latitude": -37.81492031, "longitude": 144.9707498, "Group": "Laundry and Dry-Cleaning Services"}, {"Name": "Elgin Laundrette", "Description": "Laundry and Dry-Cleaning Services", "Suburb": "Carlton", "latitude": -37.79790085, "longitude": 144.9724194, "Group": "Laundry and Dry-Cleaning Services"}, {"Name": "Mr John Aloysuis Gleeson", "Description": "Laundry and Dry-Cleaning Services", "Suburb": "Melbourne (CBD)", "latitude": -37.8186626, "longitude": 144.957551, "Group": "Laundry and Dry-Cleaning Services"}, {"Name": "Trucare Drycleaners", "Description": "Laundry and Dry-Cleaning Services", "Suburb": "Melbourne (CBD)", "latitude": -37.81638558, "longitude": 144.9600859, "Group": "Laundry and Dry-Cleaning Services"}, {"Name": "Melbourne City Drycleaners", "Description": "Laundry and Dry-Cleaning Services", "Suburb": "Melbourne (CBD)", "latitude": -37.81047422, "longitude": 144.9673261, "Group": "Laundry and Dry-Cleaning Services"}, {"Name": "New Court Drycleaners", "Description": "Laundry and Dry-Cleaning Services", "Suburb": "Melbourne (CBD)", "latitude": -37.81430616, "longitude": 144.9726281, "Group": "Laundry and Dry-Cleaning Services"}, {"Name": "Elite Drycleaners", "Description": "Laundry and Dry-Cleaning Services", "Suburb": "Melbourne (CBD)", "latitude": -37.81491502, "longitude": 144.9629442, "Group": "Laundry and Dry-Cleaning Services"}, {"Name": "Rose Garden Valet", "Description": "Laundry and Dry-Cleaning Services", "Suburb": "Melbourne (CBD)", "latitude": -37.81398457, "longitude": 144.9693797, "Group": "Laundry and Dry-Cleaning Services"}, {"Name": "Hi Clean", "Description": "Laundry and Dry-Cleaning Services", "Suburb": "Melbourne (CBD)", "latitude": -37.81416355, "longitude": 144.9617562, "Group": "Laundry and Dry-Cleaning Services"}, {"Name": "Trucare Drycleaners", "Description": "Laundry and Dry-Cleaning Services", "Suburb": "Melbourne (CBD)", "latitude": -37.81494883, "longitude": 144.9587607, "Group": "Laundry and Dry-Cleaning Services"}, {"Name": "Trucare Drycleaners", "Description": "Laundry and Dry-Cleaning Services", "Suburb": "Melbourne (CBD)", "latitude": -37.81073331, "longitude": 144.9630189, "Group": "Laundry and Dry-Cleaning Services"}, {"Name": "Trucare Drycleaners", "Description": "Laundry and Dry-Cleaning Services", "Suburb": "Melbourne (CBD)", "latitude": -37.81571393, "longitude": 144.9561073, "Group": "Laundry and Dry-Cleaning Services"}, {"Name": "Gregorys Shoe Repairs & Drycleaning", "Description": "Laundry and Dry-Cleaning Services", "Suburb": "Melbourne (CBD)", "latitude": -37.80941489, "longitude": 144.9699756, "Group": "Laundry and Dry-Cleaning Services"}, {"Name": "Renes Drycleaning", "Description": "Laundry and Dry-Cleaning Services", "Suburb": "Melbourne (CBD)", "latitude": -37.81604801, "longitude": 144.9689986, "Group": "Laundry and Dry-Cleaning Services"}, {"Name": "Ruggles Drycleaning", "Description": "Laundry and Dry-Cleaning Services", "Suburb": "Melbourne (CBD)", "latitude": -37.81850425, "longitude": 144.954944, "Group": "Laundry and Dry-Cleaning Services"}, {"Name": "Bentley The Butler", "Description": "Laundry and Dry-Cleaning Services", "Suburb": "Carlton", "latitude": -37.79803089, "longitude": 144.9681789, "Group": "Laundry and Dry-Cleaning Services"}, {"Name": "City Edge Coin Laundry", "Description": "Laundry and Dry-Cleaning Services", "Suburb": "North Melbourne", "latitude": -37.80407342, "longitude": 144.949094, "Group": "Laundry and Dry-Cleaning Services"}, {"Name": "I Bag VIC ", "Description": "Laundry and Dry-Cleaning Services", "Suburb": "Melbourne (CBD)", "latitude": -37.81571393, "longitude": 144.9561073, "Group": "Laundry and Dry-Cleaning Services"}, {"Name": "The Happy Hanger", "Description": "Laundry and Dry-Cleaning Services", "Suburb": "North Melbourne", "latitude": -37.80420164, "longitude": 144.9497236, "Group": "Laundry and Dry-Cleaning Services"}, {"Name": "Polaris Cyber Wash", "Description": "Laundry and Dry-Cleaning Services", "Suburb": "North Melbourne", "latitude": -37.80542551, "longitude": 144.9547634, "Group": "Laundry and Dry-Cleaning Services"}, {"Name": "Brown Gouge Valet", "Description": "Laundry and Dry-Cleaning Services", "Suburb": "North Melbourne", "latitude": -37.80473977, "longitude": 144.948124, "Group": "Laundry and Dry-Cleaning Services"}, {"Name": "Domain Drycleaning", "Description": "Laundry and Dry-Cleaning Services", "Suburb": "South Yarra", "latitude": -37.8343508, "longitude": 144.9822675, "Group": "Laundry and Dry-Cleaning Services"}, {"Name": "Lyn Drycleaners", "Description": "Laundry and Dry-Cleaning Services", "Suburb": "West Melbourne (Residential)", "latitude": -37.80539013, "longitude": 144.9497157, "Group": "Laundry and Dry-Cleaning Services"}, {"Name": "SunRose", "Description": "Laundry and Dry-Cleaning Services", "Suburb": "Melbourne (CBD)", "latitude": -37.81170307, "longitude": 144.9697778, "Group": "Laundry and Dry-Cleaning Services"}, {"Name": "Haines Street Laundrette", "Description": "Laundry and Dry-Cleaning Services", "Suburb": "North Melbourne", "latitude": -37.79823272, "longitude": 144.9466965, "Group": "Laundry and Dry-Cleaning Services"}, {"Name": "Bentley The Butler", "Description": "Laundry and Dry-Cleaning Services", "Suburb": "Carlton", "latitude": -37.79803089, "longitude": 144.9681789, "Group": "Laundry and Dry-Cleaning Services"}, {"Name": "Haines Street Laundrette", "Description": "Laundry and Dry-Cleaning Services", "Suburb": "North Melbourne", "latitude": -37.79823272, "longitude": 144.9466965, "Group": "Laundry and Dry-Cleaning Services"}, {"Name": "Elite Drycleaners", "Description": "Laundry and Dry-Cleaning Services", "Suburb": "Melbourne (CBD)", "latitude": -37.81491502, "longitude": 144.9629442, "Group": "Laundry and Dry-Cleaning Services"}, {"Name": "Brown Gouge Drycleaning", "Description": "Laundry and Dry-Cleaning Services", "Suburb": "Carlton", "latitude": -37.79920234, "longitude": 144.9668872, "Group": "Laundry and Dry-Cleaning Services"}, {"Name": "Melrose Street Laundrette", "Description": "Laundry and Dry-Cleaning Services", "Suburb": "North Melbourne", "latitude": -37.79093071, "longitude": 144.9429184, "Group": "Laundry and Dry-Cleaning Services"}, {"Name": "Parkville Laundrette", "Description": "Laundry and Dry-Cleaning Services", "Suburb": "Parkville", "latitude": -37.79463242, "longitude": 144.9557198, "Group": "Laundry and Dry-Cleaning Services"}, {"Name": "Bayside Drycleaning", "Description": "Laundry and Dry-Cleaning Services", "Suburb": "East Melbourne", "latitude": -37.81608793, "longitude": 144.9848341, "Group": "Laundry and Dry-Cleaning Services"}, {"Name": "Essential Napery", "Description": "Laundry and Dry-Cleaning Services", "Suburb": "Port Melbourne", "latitude": -37.82794549, "longitude": 144.9075956, "Group": "Laundry and Dry-Cleaning Services"}, {"Name": "We Love U Dry Cleaners", "Description": "Laundry and Dry-Cleaning Services", "Suburb": "Melbourne (CBD)", "latitude": -37.81660734, "longitude": 144.95955, "Group": "Laundry and Dry-Cleaning Services"}, {"Name": "Gregorys Shoe Repairs & Drycleaning", "Description": "Laundry and Dry-Cleaning Services", "Suburb": "Melbourne (CBD)", "latitude": -37.80941489, "longitude": 144.9699756, "Group": "Laundry and Dry-Cleaning Services"}, {"Name": "Melrose Street Laundrette", "Description": "Laundry and Dry-Cleaning Services", "Suburb": "North Melbourne", "latitude": -37.79093071, "longitude": 144.9429184, "Group": "Laundry and Dry-Cleaning Services"}, {"Name": "Independent Dry Cleaning Services ", "Description": "Laundry and Dry-Cleaning Services", "Suburb": "Kensington", "latitude": -37.79405204, "longitude": 144.9300585, "Group": "Laundry and Dry-Cleaning Services"}, {"Name": "Flinders Lane Drycleaners", "Description": "Laundry and Dry-Cleaning Services", "Suburb": "Melbourne (CBD)", "latitude": -37.81604801, "longitude": 144.9689986, "Group": "Laundry and Dry-Cleaning Services"}, {"Name": "Trucare Drycleaners", "Description": "Laundry and Dry-Cleaning Services", "Suburb": "Melbourne (CBD)", "latitude": -37.81494883, "longitude": 144.9587607, "Group": "Laundry and Dry-Cleaning Services"}, {"Name": "The Spin Inn & Expert Shoe Repairs", "Description": "Laundry and Dry-Cleaning Services", "Suburb": "Melbourne (Remainder)", "latitude": -37.83570366, "longitude": 144.9760426, "Group": "Laundry and Dry-Cleaning Services"}, {"Name": "J & B Drycleaning ", "Description": "Laundry and Dry-Cleaning Services", "Suburb": "Melbourne (CBD)", "latitude": -37.81170307, "longitude": 144.9697778, "Group": "Laundry and Dry-Cleaning Services"}, {"Name": "Domain Drycleaning", "Description": "Laundry and Dry-Cleaning Services", "Suburb": "South Yarra", "latitude": -37.8343508, "longitude": 144.9822675, "Group": "Laundry and Dry-Cleaning Services"}, {"Name": "Bentley The Butler", "Description": "Laundry and Dry-Cleaning Services", "Suburb": "Carlton", "latitude": -37.79803089, "longitude": 144.9681789, "Group": "Laundry and Dry-Cleaning Services"}, {"Name": "Truecare", "Description": "Laundry and Dry-Cleaning Services", "Suburb": "Southbank", "latitude": -37.82066923, "longitude": 144.9662623, "Group": "Laundry and Dry-Cleaning Services"}, {"Name": "One Stop Shop", "Description": "Laundry and Dry-Cleaning Services", "Suburb": "Melbourne (Remainder)", "latitude": -37.83570366, "longitude": 144.9760426, "Group": "Laundry and Dry-Cleaning Services"}]
