[{"Name": "Australian Federal Police", "Description": "Police Services", "Suburb": "Melbourne (CBD)", "latitude": -37.81163718, "longitude": 144.9581313, "Group": "Security Services"}, {"Name": "Melbourne Police Centre", "Description": "Police Services", "Suburb": "Docklands", "latitude": -37.82253633, "longitude": 144.9536422, "Group": "Security Services"}, {"Name": "Victoria Police", "Description": "Police Services", "Suburb": "Melbourne (CBD)", "latitude": -37.81640467, "longitude": 144.9663942, "Group": "Security Services"}, {"Name": "Carlton CIU", "Description": "Police Services", "Suburb": "Parkville", "latitude": -37.79063726, "longitude": 144.9579815, "Group": "Security Services"}, {"Name": "Carlton CIU", "Description": "Police Services", "Suburb": "Parkville", "latitude": -37.79063726, "longitude": 144.9579815, "Group": "Security Services"}, {"Name": "Traffic Camera Office", "Description": "Police Services", "Suburb": "Melbourne (CBD)", "latitude": -37.81252116, "longitude": 144.9563621, "Group": "Security Services"}, {"Name": "Police Stables", "Description": "Police Services", "Suburb": "Southbank", "latitude": -37.82502702, "longitude": 144.9685806, "Group": "Security Services"}, {"Name": "Corporate Crime Group (Victoria Police)", "Description": "Police Services", "Suburb": "Melbourne (Remainder)", "latitude": -37.84659007, "longitude": 144.9802844, "Group": "Security Services"}, {"Name": "Victorian Police Appeals Board", "Description": "Police Services", "Suburb": "Melbourne (CBD)", "latitude": -37.81485954, "longitude": 144.9602891, "Group": "Security Services"}, {"Name": "Victorian State Government", "Description": "Police Services", "Suburb": "Carlton", "latitude": -37.79795207, "longitude": 144.9693686, "Group": "Security Services"}, {"Name": "Victoria Police", "Description": "Police Services", "Suburb": "South Yarra", "latitude": -37.83423287, "longitude": 144.9869968, "Group": "Security Services"}, {"Name": "The Police Association", "Description": "Police Services", "Suburb": "East Melbourne", "latitude": -37.8100089, "longitude": 144.9832057, "Group": "Security Services"}, {"Name": "Corporate Crime Group (Victoria Police)", "Description": "Police Services", "Suburb": "Melbourne (Remainder)", "latitude": -37.84659007, "longitude": 144.9802844, "Group": "Security Services"}, {"Name": "Victorian Police Centre", "Description": "Police Services", "Suburb": "Docklands", "latitude": -37.82253633, "longitude": 144.9536422, "Group": "Security Services"}, {"Name": "Victoria Police", "Description": "Police Services", "Suburb": "Carlton", "latitude": -37.79795207, "longitude": 144.9693686, "Group": "Security Services"}, {"Name": "North Melbourne Police Station", "Description": "Police Services", "Suburb": "North Melbourne", "latitude": -37.80037745, "longitude": 144.9547732, "Group": "Security Services"}, {"Name": "Office of Chief Examiner", "Description": "Police Services", "Suburb": "North Melbourne", "latitude": -37.80553123, "longitude": 144.9574934, "Group": "Security Services"}, {"Name": "Victoria Police", "Description": "Police Services", "Suburb": "Melbourne (CBD)", "latitude": -37.81640467, "longitude": 144.9663942, "Group": "Security Services"}, {"Name": "Victorian Police Centre", "Description": "Police Services", "Suburb": "Docklands", "latitude": -37.82253633, "longitude": 144.9536422, "Group": "Security Services"}, {"Name": "Traffic Camera Office", "Description": "Police Services", "Suburb": "Melbourne (CBD)", "latitude": -37.81818484, "longitude": 144.9543659, "Group": "Security Services"}, {"Name": "Police Stables", "Description": "Police Services", "Suburb": "Southbank", "latitude": -37.82502702, "longitude": 144.9685806, "Group": "Security Services"}, {"Name": "Victoria Police", "Description": "Police Services", "Suburb": "Melbourne (CBD)", "latitude": -37.81331323, "longitude": 144.9596403, "Group": "Security Services"}, {"Name": "Melbourne Police Centre", "Description": "Police Services", "Suburb": "Docklands", "latitude": -37.82253633, "longitude": 144.9536422, "Group": "Security Services"}, {"Name": "Australian Federal Police", "Description": "Police Services", "Suburb": "Melbourne (CBD)", "latitude": -37.81163718, "longitude": 144.9581313, "Group": "Security Services"}, {"Name": "Victoria Police", "Description": "Police Services", "Suburb": "Melbourne (CBD)", "latitude": -37.81866105, "longitude": 144.9654659, "Group": "Security Services"}, {"Name": "Victoria Police", "Description": "Police Services", "Suburb": "East Melbourne", "latitude": -37.81749991, "longitude": 144.9791902, "Group": "Security Services"}, {"Name": "Victoria Police", "Description": "Police Services", "Suburb": "Melbourne (CBD)", "latitude": -37.81298088, "longitude": 144.9586138, "Group": "Security Services"}, {"Name": "Victoria Police", "Description": "Police Services", "Suburb": "South Yarra", "latitude": -37.83423287, "longitude": 144.9869968, "Group": "Security Services"}, {"Name": "The Police Association", "Description": "Police Services", "Suburb": "East Melbourne", "latitude": -37.8100089, "longitude": 144.9832057, "Group": "Security Services"}, {"Name": "Traffic Camera Office", "Description": "Police Services", "Suburb": "Melbourne (CBD)", "latitude": -37.81252116, "longitude": 144.9563621, "Group": "Security Services"}, {"Name": "Australian Federal Police", "Description": "Police Services", "Suburb": "Melbourne (CBD)", "latitude": -37.81163718, "longitude": 144.9581313, "Group": "Security Services"}, {"Name": "Australian Federal Police", "Description": "Police Services", "Suburb": "Melbourne (CBD)", "latitude": -37.81163718, "longitude": 144.9581313, "Group": "Security Services"}, {"Name": "Victoria Police", "Description": "Police Services", "Suburb": "Carlton", "latitude": -37.79795207, "longitude": 144.9693686, "Group": "Security Services"}, {"Name": "Victoria Police", "Description": "Police Services", "Suburb": "South Yarra", "latitude": -37.83423287, "longitude": 144.9869968, "Group": "Security Services"}, {"Name": "Victoria Police", "Description": "Police Services", "Suburb": "Melbourne (CBD)", "latitude": -37.81640467, "longitude": 144.9663942, "Group": "Security Services"}, {"Name": "Carlton CIU", "Description": "Police Services", "Suburb": "Parkville", "latitude": -37.79063726, "longitude": 144.9579815, "Group": "Security Services"}, {"Name": "Victoria Police", "Description": "Police Services", "Suburb": "Docklands", "latitude": -37.82253633, "longitude": 144.9536422, "Group": "Security Services"}, {"Name": "Australian Federal Police", "Description": "Police Services", "Suburb": "Melbourne (CBD)", "latitude": -37.81163718, "longitude": 144.9581313, "Group": "Security Services"}, {"Name": "Victoria Police", "Description": "Police Services", "Suburb": "East Melbourne", "latitude": -37.81749991, "longitude": 144.9791902, "Group": "Security Services"}, {"Name": "Victoria Police", "Description": "Police Services", "Suburb": "Melbourne (CBD)", "latitude": -37.81298088, "longitude": 144.9586138, "Group": "Security Services"}, {"Name": "Victorian Police Appeals Board", "Description": "Police Services", "Suburb": "Melbourne (CBD)", "latitude": -37.81485954, "longitude": 144.9602891, "Group": "Security Services"}, {"Name": "Australian Federal Police", "Description": "Police Services", "Suburb": "Melbourne (CBD)", "latitude": -37.81163718, "longitude": 144.9581313, "Group": "Security Services"}, {"Name": "Police Stables", "Description": "Police Services", "Suburb": "Southbank", "latitude": -37.82502702, "longitude": 144.9685806, "Group": "Security Services"}, {"Name": "Carlton CIU", "Description": "Police Services", "Suburb": "Parkville", "latitude": -37.79063726, "longitude": 144.9579815, "Group": "Security Services"}, {"Name": "The Police Association", "Description": "Police Services", "Suburb": "East Melbourne", "latitude": -37.8100089, "longitude": 144.9832057, "Group": "Security Services"}, {"Name": "Victoria Police", "Description": "Police Services", "Suburb": "Melbourne (CBD)", "latitude": -37.81640467, "longitude": 144.9663942, "Group": "Security Services"}, {"Name": "Corporate Crime Group (Victoria Police)", "Description": "Police Services", "Suburb": "Melbourne (Remainder)", "latitude": -37.84659007, "longitude": 144.9802844, "Group": "Security Services"}, {"Name": "Victoria Police", "Description": "Police Services", "Suburb": "Carlton", "latitude": -37.79795207, "longitude": 144.9693686, "Group": "Security Services"}, {"Name": "Victoria Police", "Description": "Police Services", "Suburb": "South Yarra", "latitude": -37.83423287, "longitude": 144.9869968, "Group": "Security Services"}, {"Name": "The Police Association", "Description": "Police Services", "Suburb": "East Melbourne", "latitude": -37.8100089, "longitude": 144.9832057, "Group": "Security Services"}, {"Name": "Traffic Camera Office", "Description": "Police Services", "Suburb": "Melbourne (CBD)", "latitude": -37.81818484, "longitude": 144.9543659, "Group": "Security Services"}, {"Name": "Police Stables", "Description": "Police Services", "Suburb": "Southbank", "latitude": -37.82502702, "longitude": 144.9685806, "Group": "Security Services"}, {"Name": "Melbourne Police Centre", "Description": "Police Services", "Suburb": "Docklands", "latitude": -37.82253633, "longitude": 144.9536422, "Group": "Security Services"}, {"Name": "Traffic Camera Office", "Description": "Police Services", "Suburb": "Melbourne (CBD)", "latitude": -37.81252116, "longitude": 144.9563621, "Group": "Security Services"}, {"Name": "The Police Association", "Description": "Police Services", "Suburb": "East Melbourne", "latitude": -37.8100089, "longitude": 144.9832057, "Group": "Security Services"}, {"Name": "Victorian Police Appeals Board", "Description": "Police Services", "Suburb": "Melbourne (CBD)", "latitude": -37.81485954, "longitude": 144.9602891, "Group": "Security Services"}, {"Name": "Victoria Police", "Description": "Police Services", "Suburb": "Melbourne (CBD)", "latitude": -37.81298088, "longitude": 144.9586138, "Group": "Security Services"}, {"Name": "Victoria Police", "Description": "Police Services", "Suburb": "South Yarra", "latitude": -37.83423287, "longitude": 144.9869968, "Group": "Security Services"}, {"Name": "Victoria Police", "Description": "Police Services", "Suburb": "Melbourne (CBD)", "latitude": -37.81734707, "longitude": 144.9592315, "Group": "Security Services"}, {"Name": "Victoria Police", "Description": "Police Services", "Suburb": "Melbourne (CBD)", "latitude": -37.81298088, "longitude": 144.9586138, "Group": "Security Services"}, {"Name": "Carlton CIU", "Description": "Police Services", "Suburb": "Parkville", "latitude": -37.79063726, "longitude": 144.9579815, "Group": "Security Services"}, {"Name": "Victoria Police", "Description": "Police Services", "Suburb": "Carlton", "latitude": -37.79795207, "longitude": 144.9693686, "Group": "Security Services"}, {"Name": "Victoria Police", "Description": "Police Services", "Suburb": "Docklands", "latitude": -37.82253633, "longitude": 144.9536422, "Group": "Security Services"}, {"Name": "Victoria Police", "Description": "Police Services", "Suburb": "Melbourne (CBD)", "latitude": -37.81640467, "longitude": 144.9663942, "Group": "Security Services"}, {"Name": "Victorian Police Appeals Board", "Description": "Police Services", "Suburb": "Melbourne (CBD)", "latitude": -37.81485954, "longitude": 144.9602891, "Group": "Security Services"}, {"Name": "Office of Chief Examiner", "Description": "Police Services", "Suburb": "North Melbourne", "latitude": -37.80553123, "longitude": 144.9574934, "Group": "Security Services"}, {"Name": "Victoria Police ", "Description": "Police Services", "Suburb": "Docklands", "latitude": -37.82253633, "longitude": 144.9536422, "Group": "Security Services"}, {"Name": "Australian Crime Commission", "Description": "Police Services", "Suburb": "Melbourne (CBD)", "latitude": -37.81946849, "longitude": 144.9586012, "Group": "Security Services"}, {"Name": "Victoria Police ", "Description": "Police Services", "Suburb": "Docklands", "latitude": -37.82253633, "longitude": 144.9536422, "Group": "Security Services"}, {"Name": "Victoria Police", "Description": "Police Services", "Suburb": "Melbourne (CBD)", "latitude": -37.81866105, "longitude": 144.9654659, "Group": "Security Services"}, {"Name": "Australian Crime Commission", "Description": "Police Services", "Suburb": "Melbourne (CBD)", "latitude": -37.81946849, "longitude": 144.9586012, "Group": "Security Services"}, {"Name": "Australian Federal Police", "Description": "Police Services", "Suburb": "Melbourne (CBD)", "latitude": -37.81163718, "longitude": 144.9581313, "Group": "Security Services"}, {"Name": "Victoria Police", "Description": "Police Services", "Suburb": "Melbourne (CBD)", "latitude": -37.81298088, "longitude": 144.9586138, "Group": "Security Services"}, {"Name": "Australian Federal Police", "Description": "Police Services", "Suburb": "Melbourne (CBD)", "latitude": -37.81163718, "longitude": 144.9581313, "Group": "Security Services"}, {"Name": "Victoria Police", "Description": "Police Services", "Suburb": "South Yarra", "latitude": -37.83423287, "longitude": 144.9869968, "Group": "Security Services"}, {"Name": "Police Stables", "Description": "Police Services", "Suburb": "Southbank", "latitude": -37.82502702, "longitude": 144.9685806, "Group": "Security Services"}, {"Name": "Victoria Police", "Description": "Police Services", "Suburb": "Docklands", "latitude": -37.82253633, "longitude": 144.9536422, "Group": "Security Services"}, {"Name": "Corporate Crime Group (Victoria Police)", "Description": "Police Services", "Suburb": "Melbourne (Remainder)", "latitude": -37.84659007, "longitude": 144.9802844, "Group": "Security Services"}, {"Name": "The Police Association", "Description": "Police Services", "Suburb": "East Melbourne", "latitude": -37.8100089, "longitude": 144.9832057, "Group": "Security Services"}, {"Name": "Traffic Camera Office", "Description": "Police Services", "Suburb": "Melbourne (CBD)", "latitude": -37.81252116, "longitude": 144.9563621, "Group": "Security Services"}, {"Name": "Australian Crime Commission", "Description": "Police Services", "Suburb": "Melbourne (CBD)", "latitude": -37.81946849, "longitude": 144.9586012, "Group": "Security Services"}, {"Name": "Traffic Camera Office", "Description": "Police Services", "Suburb": "Melbourne (CBD)", "latitude": -37.81818484, "longitude": 144.9543659, "Group": "Security Services"}, {"Name": "Police Stables", "Description": "Police Services", "Suburb": "Southbank", "latitude": -37.82502702, "longitude": 144.9685806, "Group": "Security Services"}, {"Name": "Victoria Police", "Description": "Police Services", "Suburb": "Melbourne (CBD)", "latitude": -37.81640467, "longitude": 144.9663942, "Group": "Security Services"}, {"Name": "Victoria Police", "Description": "Police Services", "Suburb": "Melbourne (CBD)", "latitude": -37.81946849, "longitude": 144.9586012, "Group": "Security Services"}, {"Name": "Victoria Police", "Description": "Police Services", "Suburb": "Melbourne (CBD)", "latitude": -37.81331323, "longitude": 144.9596403, "Group": "Security Services"}, {"Name": "Victoria Police", "Description": "Police Services", "Suburb": "South Yarra", "latitude": -37.83423287, "longitude": 144.9869968, "Group": "Security Services"}, {"Name": "Police Stables", "Description": "Police Services", "Suburb": "Southbank", "latitude": -37.82502702, "longitude": 144.9685806, "Group": "Security Services"}, {"Name": "Carlton CIU", "Description": "Police Services", "Suburb": "Parkville", "latitude": -37.79063726, "longitude": 144.9579815, "Group": "Security Services"}, {"Name": "Victoria Police", "Description": "Police Services", "Suburb": "East Melbourne", "latitude": -37.81749991, "longitude": 144.9791902, "Group": "Security Services"}, {"Name": "North Melbourne Police Station", "Description": "Police Services", "Suburb": "North Melbourne", "latitude": -37.80037745, "longitude": 144.9547732, "Group": "Security Services"}, {"Name": "Victoria Police", "Description": "Police Services", "Suburb": "Docklands", "latitude": -37.82253633, "longitude": 144.9536422, "Group": "Security Services"}, {"Name": "Office of Chief Examiner", "Description": "Police Services", "Suburb": "North Melbourne", "latitude": -37.80553123, "longitude": 144.9574934, "Group": "Security Services"}, {"Name": "Victoria Police", "Description": "Police Services", "Suburb": "Melbourne (CBD)", "latitude": -37.81640467, "longitude": 144.9663942, "Group": "Security Services"}, {"Name": "Victoria Police", "Description": "Police Services", "Suburb": "Docklands", "latitude": -37.82253633, "longitude": 144.9536422, "Group": "Security Services"}, {"Name": "Victorian Police Appeals Board", "Description": "Police Services", "Suburb": "Melbourne (CBD)", "latitude": -37.81485954, "longitude": 144.9602891, "Group": "Security Services"}, {"Name": "Victoria Police", "Description": "Police Services", "Suburb": "Docklands", "latitude": -37.82253633, "longitude": 144.9536422, "Group": "Security Services"}, {"Name": "Corporate Crime Group (Victoria Police)", "Description": "Police Services", "Suburb": "Melbourne (Remainder)", "latitude": -37.84659007, "longitude": 144.9802844, "Group": "Security Services"}, {"Name": "Police Stables", "Description": "Police Services", "Suburb": "Southbank", "latitude": -37.82502702, "longitude": 144.9685806, "Group": "Security Services"}, {"Name": "North Melbourne Police Station", "Description": "Police Services", "Suburb": "North Melbourne", "latitude": -37.80037745, "longitude": 144.9547732, "Group": "Security Services"}, {"Name": "Office of Chief Examiner", "Description": "Police Services", "Suburb": "North Melbourne", "latitude": -37.80553123, "longitude": 144.9574934, "Group": "Security Services"}]
