[{"Name": "The Fiddler Pub", "Description": "Pubs, Taverns and Bars", "Suburb": "Melbourne (CBD)", "latitude": -37.81782672, "longitude": 144.955606, "Group": "Social Activities"}, {"Name": "Hardimans Hotel", "Description": "Pubs, Taverns and Bars", "Suburb": "Kensington", "latitude": -37.79442113, "longitude": 144.9283553, "Group": "Social Activities"}, {"Name": "Players On Lygon", "Description": "Pubs, Taverns and Bars", "Suburb": "Carlton", "latitude": -37.80245924, "longitude": 144.9670522, "Group": "Social Activities"}, {"Name": "Piazza Cafe Bar", "Description": "Pubs, Taverns and Bars", "Suburb": "Carlton", "latitude": -37.80263986, "longitude": 144.9669216, "Group": "Social Activities"}, {"Name": "Bar Centrale", "Description": "Pubs, Taverns and Bars", "Suburb": "Carlton", "latitude": -37.80344164, "longitude": 144.9667699, "Group": "Social Activities"}, {"Name": "Purple Emerald", "Description": "Pubs, Taverns and Bars", "Suburb": "Melbourne (CBD)", "latitude": -37.81663851, "longitude": 144.9685429, "Group": "Social Activities"}, {"Name": "Percys Bar & Bistro", "Description": "Pubs, Taverns and Bars", "Suburb": "Carlton", "latitude": -37.79694555, "longitude": 144.9678126, "Group": "Social Activities"}, {"Name": "JWow Bar", "Description": "Pubs, Taverns and Bars", "Suburb": "Melbourne (CBD)", "latitude": -37.810658, "longitude": 144.9657034, "Group": "Social Activities"}, {"Name": "The Men's Gallery", "Description": "Pubs, Taverns and Bars", "Suburb": "Melbourne (CBD)", "latitude": -37.81491898, "longitude": 144.9544951, "Group": "Social Activities"}, {"Name": "Dr Martin's Tavern", "Description": "Pubs, Taverns and Bars", "Suburb": "Melbourne (CBD)", "latitude": -37.81393777, "longitude": 144.9705847, "Group": "Social Activities"}, {"Name": "Publicity Nightclub", "Description": "Pubs, Taverns and Bars", "Suburb": "Melbourne (CBD)", "latitude": -37.81279907, "longitude": 144.9691653, "Group": "Social Activities"}, {"Name": "Metropolitan Hotel", "Description": "Pubs, Taverns and Bars", "Suburb": "Melbourne (CBD)", "latitude": -37.81292397, "longitude": 144.9565837, "Group": "Social Activities"}, {"Name": "Baroq House", "Description": "Pubs, Taverns and Bars", "Suburb": "Melbourne (CBD)", "latitude": -37.81130304, "longitude": 144.9639703, "Group": "Social Activities"}, {"Name": "Stork Hotel", "Description": "Pubs, Taverns and Bars", "Suburb": "Melbourne (CBD)", "latitude": -37.80719768, "longitude": 144.9603498, "Group": "Social Activities"}, {"Name": "Mac's Hotel", "Description": "Pubs, Taverns and Bars", "Suburb": "Melbourne (CBD)", "latitude": -37.80752292, "longitude": 144.9616126, "Group": "Social Activities"}, {"Name": "Goldfingers Mens Club", "Description": "Pubs, Taverns and Bars", "Suburb": "Melbourne (CBD)", "latitude": -37.814067, "longitude": 144.9551409, "Group": "Social Activities"}, {"Name": "Infinity Cafe & Bar", "Description": "Pubs, Taverns and Bars", "Suburb": "Melbourne (CBD)", "latitude": -37.80951668, "longitude": 144.966904, "Group": "Social Activities"}, {"Name": "Jankara Karaoke", "Description": "Pubs, Taverns and Bars", "Suburb": "Melbourne (CBD)", "latitude": -37.81047422, "longitude": 144.9673261, "Group": "Social Activities"}, {"Name": "Royal Melbourne Hotel", "Description": "Pubs, Taverns and Bars", "Suburb": "Melbourne (CBD)", "latitude": -37.81686695, "longitude": 144.955228, "Group": "Social Activities"}, {"Name": "Court House Hotel", "Description": "Pubs, Taverns and Bars", "Suburb": "North Melbourne", "latitude": -37.80287733, "longitude": 144.9499557, "Group": "Social Activities"}, {"Name": "Mega Bar", "Description": "Pubs, Taverns and Bars", "Suburb": "Melbourne (CBD)", "latitude": -37.82005619, "longitude": 144.9576571, "Group": "Social Activities"}, {"Name": "E J Whitten Bar ", "Description": "Pubs, Taverns and Bars", "Suburb": "Docklands", "latitude": -37.81656591, "longitude": 144.9475776, "Group": "Social Activities"}, {"Name": "Captains Bar ", "Description": "Pubs, Taverns and Bars", "Suburb": "Docklands", "latitude": -37.81656591, "longitude": 144.9475776, "Group": "Social Activities"}, {"Name": "The Charles Dickens Tavern", "Description": "Pubs, Taverns and Bars", "Suburb": "Melbourne (CBD)", "latitude": -37.81567229, "longitude": 144.9645574, "Group": "Social Activities"}, {"Name": "Hall", "Description": "Clubs (Hospitality)", "Suburb": "North Melbourne", "latitude": -37.80061346, "longitude": 144.9493084, "Group": "Social Activities"}, {"Name": "Polepole Bar", "Description": "Pubs, Taverns and Bars", "Suburb": "Melbourne (CBD)", "latitude": -37.81483458, "longitude": 144.9656034, "Group": "Social Activities"}, {"Name": "Hell's Kitchen", "Description": "Pubs, Taverns and Bars", "Suburb": "Melbourne (CBD)", "latitude": -37.8166033, "longitude": 144.9655966, "Group": "Social Activities"}, {"Name": "McMahons", "Description": "Pubs, Taverns and Bars", "Suburb": "West Melbourne (Residential)", "latitude": -37.80740767, "longitude": 144.9469867, "Group": "Social Activities"}, {"Name": "Clare Castle Hotel", "Description": "Pubs, Taverns and Bars", "Suburb": "Carlton", "latitude": -37.79652005, "longitude": 144.9704262, "Group": "Social Activities"}, {"Name": "Clyde Hotel", "Description": "Pubs, Taverns and Bars", "Suburb": "Carlton", "latitude": -37.79725532, "longitude": 144.9657541, "Group": "Social Activities"}, {"Name": "Misty Place", "Description": "Pubs, Taverns and Bars", "Suburb": "Melbourne (CBD)", "latitude": -37.81650918, "longitude": 144.9690184, "Group": "Social Activities"}, {"Name": "Honkytonks", "Description": "Pubs, Taverns and Bars", "Suburb": "Melbourne (CBD)", "latitude": -37.81589712, "longitude": 144.9714735, "Group": "Social Activities"}, {"Name": "G Links", "Description": "Pubs, Taverns and Bars", "Suburb": "Melbourne (CBD)", "latitude": -37.81640467, "longitude": 144.9663942, "Group": "Social Activities"}, {"Name": "Zanzibah", "Description": "Pubs, Taverns and Bars", "Suburb": "Melbourne (CBD)", "latitude": -37.81430616, "longitude": 144.9726281, "Group": "Social Activities"}, {"Name": "Naughtons Hotel", "Description": "Pubs, Taverns and Bars", "Suburb": "Parkville", "latitude": -37.79554181, "longitude": 144.9575345, "Group": "Social Activities"}, {"Name": "Clare Castle Hotel", "Description": "Pubs, Taverns and Bars", "Suburb": "Carlton", "latitude": -37.79652005, "longitude": 144.9704262, "Group": "Social Activities"}, {"Name": "Beer De Luxe", "Description": "Pubs, Taverns and Bars", "Suburb": "Melbourne (CBD)", "latitude": -37.81784465, "longitude": 144.9699175, "Group": "Social Activities"}, {"Name": "Icon", "Description": "Pubs, Taverns and Bars", "Suburb": "Melbourne (CBD)", "latitude": -37.81568875, "longitude": 144.9703998, "Group": "Social Activities"}, {"Name": "University House", "Description": "Clubs (Hospitality)", "Suburb": "Parkville", "latitude": -37.79739836, "longitude": 144.9612468, "Group": "Social Activities"}, {"Name": "U Bar", "Description": "Pubs, Taverns and Bars", "Suburb": "Parkville", "latitude": -37.79739836, "longitude": 144.9612468, "Group": "Social Activities"}, {"Name": "Bennetts Lane Jazz Club", "Description": "Pubs, Taverns and Bars", "Suburb": "Melbourne (CBD)", "latitude": -37.80889245, "longitude": 144.967558, "Group": "Social Activities"}, {"Name": "Victoria Hotel", "Description": "Pubs, Taverns and Bars", "Suburb": "North Melbourne", "latitude": -37.80563237, "longitude": 144.9557051, "Group": "Social Activities"}, {"Name": "Central Club Hotel", "Description": "Pubs, Taverns and Bars", "Suburb": "North Melbourne", "latitude": -37.80591439, "longitude": 144.9581264, "Group": "Social Activities"}, {"Name": "The Public Bar Hotel", "Description": "Pubs, Taverns and Bars", "Suburb": "North Melbourne", "latitude": -37.80593327, "longitude": 144.9585875, "Group": "Social Activities"}, {"Name": "Murmur", "Description": "Pubs, Taverns and Bars", "Suburb": "Melbourne (CBD)", "latitude": -37.81381239, "longitude": 144.9618462, "Group": "Social Activities"}, {"Name": "Dream", "Description": "Pubs, Taverns and Bars", "Suburb": "Carlton", "latitude": -37.80459072, "longitude": 144.9611486, "Group": "Social Activities"}, {"Name": "Sir Robert Peel Hotel", "Description": "Pubs, Taverns and Bars", "Suburb": "North Melbourne", "latitude": -37.80395618, "longitude": 144.9559672, "Group": "Social Activities"}, {"Name": "Royal Park Hotel", "Description": "Pubs, Taverns and Bars", "Suburb": "North Melbourne", "latitude": -37.80378609, "longitude": 144.9543149, "Group": "Social Activities"}, {"Name": "The Waiting Room", "Description": "Pubs, Taverns and Bars", "Suburb": "Southbank", "latitude": -37.82312164, "longitude": 144.9586604, "Group": "Social Activities"}, {"Name": "Tony Stars Kitten Club", "Description": "Pubs, Taverns and Bars", "Suburb": "Melbourne (CBD)", "latitude": -37.81483458, "longitude": 144.9656034, "Group": "Social Activities"}, {"Name": "Hell's Kitchen", "Description": "Pubs, Taverns and Bars", "Suburb": "Melbourne (CBD)", "latitude": -37.8166033, "longitude": 144.9655966, "Group": "Social Activities"}, {"Name": "Loki Bar", "Description": "Pubs, Taverns and Bars", "Suburb": "West Melbourne (Residential)", "latitude": -37.80666721, "longitude": 144.955498, "Group": "Social Activities"}, {"Name": "The Fiddler Pub", "Description": "Pubs, Taverns and Bars", "Suburb": "Melbourne (CBD)", "latitude": -37.81782672, "longitude": 144.955606, "Group": "Social Activities"}, {"Name": "Portland Hotel", "Description": "Pubs, Taverns and Bars", "Suburb": "Melbourne (CBD)", "latitude": -37.81367486, "longitude": 144.9681892, "Group": "Social Activities"}, {"Name": "Spleen Central", "Description": "Pubs, Taverns and Bars", "Suburb": "Melbourne (CBD)", "latitude": -37.81193572, "longitude": 144.9720472, "Group": "Social Activities"}, {"Name": "Loop 23 ", "Description": "Pubs, Taverns and Bars", "Suburb": "Melbourne (CBD)", "latitude": -37.8121518, "longitude": 144.9721078, "Group": "Social Activities"}, {"Name": "The Melbourne Club", "Description": "Clubs (Hospitality)", "Suburb": "Melbourne (CBD)", "latitude": -37.81324914, "longitude": 144.9721172, "Group": "Social Activities"}, {"Name": "Melbourne Metro Nightclub", "Description": "Pubs, Taverns and Bars", "Suburb": "Melbourne (CBD)", "latitude": -37.81117272, "longitude": 144.9721471, "Group": "Social Activities"}, {"Name": "Aura - The Lounge", "Description": "Pubs, Taverns and Bars", "Suburb": "Melbourne (CBD)", "latitude": -37.81124834, "longitude": 144.9725086, "Group": "Social Activities"}, {"Name": "Imperial Hotel", "Description": "Pubs, Taverns and Bars", "Suburb": "Melbourne (CBD)", "latitude": -37.8112003, "longitude": 144.972676, "Group": "Social Activities"}, {"Name": "Cheers On Little Bourke Street", "Description": "Pubs, Taverns and Bars", "Suburb": "Melbourne (CBD)", "latitude": -37.81074304, "longitude": 144.9719903, "Group": "Social Activities"}, {"Name": "Young & Jackson", "Description": "Pubs, Taverns and Bars", "Suburb": "Melbourne (CBD)", "latitude": -37.817356, "longitude": 144.967023, "Group": "Social Activities"}, {"Name": "AHS Hospitality", "Description": "Clubs (Hospitality)", "Suburb": "Melbourne (CBD)", "latitude": -37.81268978, "longitude": 144.9712561, "Group": "Social Activities"}, {"Name": "European Bier Cafe", "Description": "Pubs, Taverns and Bars", "Suburb": "Melbourne (CBD)", "latitude": -37.81285806, "longitude": 144.9711999, "Group": "Social Activities"}, {"Name": "The Naval And Military Club", "Description": "Clubs (Hospitality)", "Suburb": "Melbourne (CBD)", "latitude": -37.81290511, "longitude": 144.9727065, "Group": "Social Activities"}, {"Name": "Champagne Lounge", "Description": "Pubs, Taverns and Bars", "Suburb": "Melbourne (CBD)", "latitude": -37.81279876, "longitude": 144.9723932, "Group": "Social Activities"}, {"Name": "Pony", "Description": "Pubs, Taverns and Bars", "Suburb": "Melbourne (CBD)", "latitude": -37.81284117, "longitude": 144.9713311, "Group": "Social Activities"}, {"Name": "Bridie O'Reillys", "Description": "Pubs, Taverns and Bars", "Suburb": "Melbourne (CBD)", "latitude": -37.81280958, "longitude": 144.971442, "Group": "Social Activities"}, {"Name": "The Lyceum Club", "Description": "Clubs (Hospitality)", "Suburb": "Melbourne (CBD)", "latitude": -37.81314963, "longitude": 144.9725952, "Group": "Social Activities"}, {"Name": "Chill On Pty Ltd", "Description": "Pubs, Taverns and Bars", "Suburb": "Melbourne (CBD)", "latitude": -37.80957196, "longitude": 144.9669287, "Group": "Social Activities"}, {"Name": "Coopers Inn", "Description": "Pubs, Taverns and Bars", "Suburb": "Melbourne (CBD)", "latitude": -37.80941489, "longitude": 144.9699756, "Group": "Social Activities"}, {"Name": "Steamworks", "Description": "Clubs (Hospitality)", "Suburb": "Melbourne (CBD)", "latitude": -37.81070873, "longitude": 144.9609585, "Group": "Social Activities"}, {"Name": "Duke of Kent Hotel", "Description": "Pubs, Taverns and Bars", "Suburb": "Melbourne (CBD)", "latitude": -37.81081439, "longitude": 144.9605086, "Group": "Social Activities"}, {"Name": "The Amber Lounge", "Description": "Pubs, Taverns and Bars", "Suburb": "Melbourne (CBD)", "latitude": -37.81236842, "longitude": 144.9607949, "Group": "Social Activities"}, {"Name": "The Celtic Club", "Description": "Clubs (Hospitality)", "Suburb": "Melbourne (CBD)", "latitude": -37.81120286, "longitude": 144.9593023, "Group": "Social Activities"}, {"Name": "Royal Antediluvian Order Buffaloes Grand Australas", "Description": "Clubs (Hospitality)", "Suburb": "Melbourne (CBD)", "latitude": -37.81097276, "longitude": 144.9608871, "Group": "Social Activities"}, {"Name": "Great Western Hotel", "Description": "Pubs, Taverns and Bars", "Suburb": "Melbourne (CBD)", "latitude": -37.81521196, "longitude": 144.9554836, "Group": "Social Activities"}, {"Name": "Dream", "Description": "Pubs, Taverns and Bars", "Suburb": "Carlton", "latitude": -37.80459072, "longitude": 144.9611486, "Group": "Social Activities"}, {"Name": "Dream", "Description": "Pubs, Taverns and Bars", "Suburb": "Carlton", "latitude": -37.80457546, "longitude": 144.9610352, "Group": "Social Activities"}, {"Name": "The Keeper's Arm", "Description": "Pubs, Taverns and Bars", "Suburb": "North Melbourne", "latitude": -37.80395618, "longitude": 144.9559672, "Group": "Social Activities"}, {"Name": "Royal Park Hotel/Pub", "Description": "Pubs, Taverns and Bars", "Suburb": "North Melbourne", "latitude": -37.80378609, "longitude": 144.9543149, "Group": "Social Activities"}, {"Name": "Bond Lounge", "Description": "Pubs, Taverns and Bars", "Suburb": "Melbourne (CBD)", "latitude": -37.81814578, "longitude": 144.9630575, "Group": "Social Activities"}, {"Name": "Waterside Hotel", "Description": "Pubs, Taverns and Bars", "Suburb": "Melbourne (CBD)", "latitude": -37.820166, "longitude": 144.9571505, "Group": "Social Activities"}, {"Name": "Players On Lygon", "Description": "Pubs, Taverns and Bars", "Suburb": "Carlton", "latitude": -37.80245924, "longitude": 144.9670522, "Group": "Social Activities"}, {"Name": "Hotel Milan", "Description": "Pubs, Taverns and Bars", "Suburb": "Carlton", "latitude": -37.80263986, "longitude": 144.9669216, "Group": "Social Activities"}, {"Name": "Bar Centrale", "Description": "Pubs, Taverns and Bars", "Suburb": "Carlton", "latitude": -37.80344164, "longitude": 144.9667699, "Group": "Social Activities"}, {"Name": "The Leveson", "Description": "Pubs, Taverns and Bars", "Suburb": "North Melbourne", "latitude": -37.80370014, "longitude": 144.9514591, "Group": "Social Activities"}, {"Name": "Jimmy Watsons", "Description": "Pubs, Taverns and Bars", "Suburb": "Carlton", "latitude": -37.7975082, "longitude": 144.9671779, "Group": "Social Activities"}, {"Name": "Jen Jen's Oriental Food Bar", "Description": "Pubs, Taverns and Bars", "Suburb": "Carlton", "latitude": -37.79954259, "longitude": 144.9668266, "Group": "Social Activities"}, {"Name": "Liq Cafe Bar Lounge", "Description": "Pubs, Taverns and Bars", "Suburb": "Carlton", "latitude": -37.80673947, "longitude": 144.9656386, "Group": "Social Activities"}, {"Name": "John Curtin Hotel", "Description": "Pubs, Taverns and Bars", "Suburb": "Carlton", "latitude": -37.80619915, "longitude": 144.9656988, "Group": "Social Activities"}, {"Name": "One Lygon Street", "Description": "Pubs, Taverns and Bars", "Suburb": "Carlton", "latitude": -37.80673947, "longitude": 144.9656386, "Group": "Social Activities"}, {"Name": "John Curtin Hotel", "Description": "Pubs, Taverns and Bars", "Suburb": "Carlton", "latitude": -37.80619915, "longitude": 144.9656988, "Group": "Social Activities"}, {"Name": "Pugg Mahones Irish Bar", "Description": "Pubs, Taverns and Bars", "Suburb": "Melbourne (CBD)", "latitude": -37.81213605, "longitude": 144.9606805, "Group": "Social Activities"}, {"Name": "Eldorado Hotel", "Description": "Pubs, Taverns and Bars", "Suburb": "North Melbourne", "latitude": -37.80370014, "longitude": 144.9514591, "Group": "Social Activities"}, {"Name": "Carlton Inn", "Description": "Pubs, Taverns and Bars", "Suburb": "Carlton", "latitude": -37.80243195, "longitude": 144.960916, "Group": "Social Activities"}, {"Name": "Hyde", "Description": "Pubs, Taverns and Bars", "Suburb": "Melbourne (CBD)", "latitude": -37.80932575, "longitude": 144.9668166, "Group": "Social Activities"}, {"Name": "The Irish Times", "Description": "Pubs, Taverns and Bars", "Suburb": "Melbourne (CBD)", "latitude": -37.8162542, "longitude": 144.9605354, "Group": "Social Activities"}, {"Name": "Dallas Showgirls", "Description": "Pubs, Taverns and Bars", "Suburb": "Melbourne (CBD)", "latitude": -37.81569596, "longitude": 144.9550815, "Group": "Social Activities"}, {"Name": "Teezz Lounge", "Description": "Pubs, Taverns and Bars", "Suburb": "Melbourne (CBD)", "latitude": -37.81569596, "longitude": 144.9550815, "Group": "Social Activities"}]
