[{"Name": "Institute of Tertiary & Higher Education Australia", "Description": "Higher Education", "Suburb": "Melbourne (CBD)", "latitude": "-37.81763918", "longitude": "144.9638507", "Group": "Universities"}, {"Name": "RMIT University", "Description": "Higher Education", "Suburb": "Melbourne (CBD)", "latitude": "-37.80818365", "longitude": "144.9645504", "Group": "Universities"}, {"Name": "Central Queensland University", "Description": "Higher Education", "Suburb": "Melbourne (CBD)", "latitude": "-37.81002509", "longitude": "144.9689001", "Group": "Universities"}, {"Name": "Mother & Child Health Research", "Description": "Higher Education", "Suburb": "Carlton", "latitude": "-37.7999972", "longitude": "144.9648282", "Group": "Universities"}, {"Name": "The University of Melbourne", "Description": "Higher Education", "Suburb": "Carlton", "latitude": "-37.80240996", "longitude": "144.960034", "Group": "Universities"}, {"Name": "Victoria University of Technology", "Description": "Higher Education", "Suburb": "Melbourne (CBD)", "latitude": "-37.81805379", "longitude": "144.964041", "Group": "Universities"}, {"Name": "Monash College", "Description": "Higher Education", "Suburb": "Melbourne (CBD)", "latitude": "-37.81272047", "longitude": "144.9662952", "Group": "Universities"}, {"Name": "RMIT Faculty of Business", "Description": "Higher Education", "Suburb": "Melbourne (CBD)", "latitude": "-37.81376503", "longitude": "144.9665978", "Group": "Universities"}, {"Name": "The Chambers Institute", "Description": "Higher Education", "Suburb": "Melbourne (CBD)", "latitude": "-37.8153709", "longitude": "144.9611919", "Group": "Universities"}, {"Name": "The University of Melbourne", "Description": "Higher Education", "Suburb": "Parkville", "latitude": "-37.79739836", "longitude": "144.9612468", "Group": "Universities"}, {"Name": "The University of Melbourne", "Description": "Higher Education", "Suburb": "Carlton", "latitude": "-37.80395655", "longitude": "144.9610023", "Group": "Universities"}, {"Name": "La Trobe Street Gallery School", "Description": "Higher Education", "Suburb": "North Melbourne", "latitude": "-37.80416179", "longitude": "144.9577957", "Group": "Universities"}, {"Name": "The Australian National University", "Description": "Higher Education", "Suburb": "Melbourne (CBD)", "latitude": "-37.81355886", "longitude": "144.9718392", "Group": "Universities"}, {"Name": "Equity & Learning Programs", "Description": "Higher Education", "Suburb": "Carlton", "latitude": "-37.80087264", "longitude": "144.9634142", "Group": "Universities"}, {"Name": "Population Health", "Description": "Higher Education", "Suburb": "Carlton", "latitude": "-37.80087264", "longitude": "144.9634142", "Group": "Universities"}, {"Name": "Monash University Conference Centre", "Description": "Higher Education", "Suburb": "Melbourne (CBD)", "latitude": "-37.81346244", "longitude": "144.9724724", "Group": "Universities"}, {"Name": "Australian Institute of Public Safety", "Description": "Higher Education", "Suburb": "Melbourne (CBD)", "latitude": "-37.81724878", "longitude": "144.9665517", "Group": "Universities"}, {"Name": "La Trobe Street Gallery School", "Description": "Higher Education", "Suburb": "North Melbourne", "latitude": "-37.80416179", "longitude": "144.9577957", "Group": "Universities"}, {"Name": "Trinity College Foundation Studies", "Description": "Higher Education", "Suburb": "Carlton", "latitude": "-37.80138172", "longitude": "144.9630505", "Group": "Universities"}, {"Name": "RMIT University", "Description": "Higher Education", "Suburb": "Carlton", "latitude": "-37.80637336", "longitude": "144.9656692", "Group": "Universities"}, {"Name": "RMIT University", "Description": "Higher Education", "Suburb": "Carlton", "latitude": "-37.80551546", "longitude": "144.9654562", "Group": "Universities"}, {"Name": "RMIT University", "Description": "Higher Education", "Suburb": "Carlton", "latitude": "-37.80637336", "longitude": "144.9656692", "Group": "Universities"}, {"Name": "Trinity College Foundation Studies", "Description": "Higher Education", "Suburb": "Carlton", "latitude": "-37.80138172", "longitude": "144.9630505", "Group": "Universities"}, {"Name": "The University of Melbourne", "Description": "Higher Education", "Suburb": "Carlton", "latitude": "-37.80375296", "longitude": "144.9596864", "Group": "Universities"}, {"Name": "The University of Melbourne", "Description": "Higher Education", "Suburb": "Carlton", "latitude": "-37.80395655", "longitude": "144.9610023", "Group": "Universities"}, {"Name": "Victorian College of The Arts", "Description": "Higher Education", "Suburb": "Southbank", "latitude": "-37.82446912", "longitude": "144.9694673", "Group": "Universities"}, {"Name": "Trinity College - Trinity Foundation Studies", "Description": "Higher Education", "Suburb": "Carlton", "latitude": "-37.80051573", "longitude": "144.9620195", "Group": "Universities"}, {"Name": "Melbourne University Private Ltd", "Description": "Higher Education", "Suburb": "Carlton", "latitude": "-37.80046466", "longitude": "144.9615782", "Group": "Universities"}, {"Name": "RMIT Design Institute", "Description": "Higher Education", "Suburb": "Carlton", "latitude": "-37.80601034", "longitude": "144.9638907", "Group": "Universities"}, {"Name": "University of Melbourne Veterinary Research", "Description": "Higher Education", "Suburb": "Parkville", "latitude": "-37.79746438", "longitude": "144.9539269", "Group": "Universities"}, {"Name": "Nossal Institute for Global Health", "Description": "Higher Education", "Suburb": "Carlton", "latitude": "-37.8005402", "longitude": "144.9627573", "Group": "Universities"}, {"Name": "RMIT University", "Description": "Higher Education", "Suburb": "Carlton", "latitude": "-37.80551465", "longitude": "144.9649038", "Group": "Universities"}, {"Name": "RMIT Faculty of Engineering", "Description": "Higher Education", "Suburb": "Port Melbourne", "latitude": "-37.82908193", "longitude": "144.904075", "Group": "Universities"}, {"Name": "RMIT University", "Description": "Higher Education", "Suburb": "Melbourne (CBD)", "latitude": "-37.80779355", "longitude": "144.9626708", "Group": "Universities"}, {"Name": "Ella Bache", "Description": "Higher Education", "Suburb": "Southbank", "latitude": "-37.82606728", "longitude": "144.956829", "Group": "Universities"}, {"Name": "Sir Zelman Cowen Centre / Victoria Law School", "Description": "Higher Education", "Suburb": "Melbourne (CBD)", "latitude": "-37.8118532", "longitude": "144.958843", "Group": "Universities"}, {"Name": "RMIT Resources", "Description": "Higher Education", "Suburb": "Melbourne (CBD)", "latitude": "-37.80883654", "longitude": "144.9630431", "Group": "Universities"}, {"Name": "RMIT Resources", "Description": "Higher Education", "Suburb": "Melbourne (CBD)", "latitude": "-37.80786919", "longitude": "144.9623754", "Group": "Universities"}, {"Name": "RMIT University", "Description": "Higher Education", "Suburb": "Melbourne (CBD)", "latitude": "-37.80894909", "longitude": "144.9611573", "Group": "Universities"}, {"Name": "University of Melbourne Audiology & Speech Science Unit", "Description": "Higher Education", "Suburb": "East Melbourne", "latitude": "-37.80950079", "longitude": "144.9779336", "Group": "Universities"}, {"Name": "The University of Melbourne", "Description": "Higher Education", "Suburb": "East Melbourne", "latitude": "-37.80950079", "longitude": "144.9779336", "Group": "Universities"}, {"Name": "RMIT University", "Description": "Higher Education", "Suburb": "Carlton", "latitude": "-37.80601034", "longitude": "144.9638907", "Group": "Universities"}, {"Name": "The University of Melbourne", "Description": "Higher Education", "Suburb": "Carlton", "latitude": "-37.79780844", "longitude": "144.965164", "Group": "Universities"}, {"Name": "Systems Project", "Description": "Higher Education", "Suburb": "Carlton", "latitude": "-37.79780844", "longitude": "144.965164", "Group": "Universities"}, {"Name": "Staff Development", "Description": "Higher Education", "Suburb": "Carlton", "latitude": "-37.80087264", "longitude": "144.9634142", "Group": "Universities"}, {"Name": "Institute of Judical Administration", "Description": "Higher Education", "Suburb": "Carlton", "latitude": "-37.80087264", "longitude": "144.9634142", "Group": "Universities"}, {"Name": "University of Melbourne School of Post Graduate Nursing", "Description": "Higher Education", "Suburb": "Carlton", "latitude": "-37.80087264", "longitude": "144.9634142", "Group": "Universities"}, {"Name": "The Royal Australian & New Zealand College of Obstetricians & Gynaecologists", "Description": "Higher Education", "Suburb": "East Melbourne", "latitude": "-37.80994026", "longitude": "144.9825772", "Group": "Universities"}, {"Name": "RMIT University", "Description": "Higher Education", "Suburb": "Melbourne (CBD)", "latitude": "-37.80818365", "longitude": "144.9645504", "Group": "Universities"}, {"Name": "RMIT University (City Campus)", "Description": "Higher Education", "Suburb": "Melbourne (CBD)", "latitude": "-37.80818365", "longitude": "144.9645504", "Group": "Universities"}, {"Name": "RMIT University", "Description": "Higher Education", "Suburb": "Melbourne (CBD)", "latitude": "-37.80818365", "longitude": "144.9645504", "Group": "Universities"}, {"Name": "Monash University Medical School", "Description": "Higher Education", "Suburb": "Melbourne (Remainder)", "latitude": "-37.84685298", "longitude": "144.9803782", "Group": "Universities"}, {"Name": "Clemager, Harvie Edge", "Description": "Higher Education", "Suburb": "Melbourne (Remainder)", "latitude": "-37.84685298", "longitude": "144.9803782", "Group": "Universities"}, {"Name": "Monash University Law Chambers", "Description": "Higher Education", "Suburb": "Melbourne (CBD)", "latitude": "-37.81486162", "longitude": "144.9595998", "Group": "Universities"}, {"Name": "RMIT English Worldwide ", "Description": "Higher Education", "Suburb": "Melbourne (CBD)", "latitude": "-37.80928252", "longitude": "144.9632535", "Group": "Universities"}, {"Name": "Victoria University of Technology", "Description": "Higher Education", "Suburb": "Melbourne (CBD)", "latitude": "-37.81755508", "longitude": "144.9640591", "Group": "Universities"}, {"Name": "RMIT University", "Description": "Higher Education", "Suburb": "Melbourne (CBD)", "latitude": "-37.80901615", "longitude": "144.9666738", "Group": "Universities"}, {"Name": "The University of Melbourne", "Description": "Higher Education", "Suburb": "Carlton", "latitude": "-37.80170578", "longitude": "144.9655598", "Group": "Universities"}, {"Name": "RMIT University", "Description": "Higher Education", "Suburb": "Carlton", "latitude": "-37.80551465", "longitude": "144.9649038", "Group": "Universities"}, {"Name": "RMIT University", "Description": "Higher Education", "Suburb": "Carlton", "latitude": "-37.80560222", "longitude": "144.9648882", "Group": "Universities"}, {"Name": "RMIT University", "Description": "Higher Education", "Suburb": "Carlton", "latitude": "-37.80625218", "longitude": "144.9647631", "Group": "Universities"}, {"Name": "Australian International College", "Description": "Higher Education", "Suburb": "West Melbourne (Residential)", "latitude": "-37.81165194", "longitude": "144.9511526", "Group": "Universities"}, {"Name": "University of Melbourne Department Economics Households Research", "Description": "Higher Education", "Suburb": "Carlton", "latitude": "-37.80105786", "longitude": "144.9627115", "Group": "Universities"}, {"Name": "University of Melbourne Tutorial Rooms", "Description": "Higher Education", "Suburb": "Carlton", "latitude": "-37.80194018", "longitude": "144.9614597", "Group": "Universities"}, {"Name": "University of Melbourne Department Electrical Engineering", "Description": "Higher Education", "Suburb": "Carlton", "latitude": "-37.80117842", "longitude": "144.961518", "Group": "Universities"}, {"Name": "Melbourne Business School Limited", "Description": "Higher Education", "Suburb": "Carlton", "latitude": "-37.80117842", "longitude": "144.961518", "Group": "Universities"}, {"Name": "University of Melbourne Administration", "Description": "Higher Education", "Suburb": "Carlton", "latitude": "-37.80117842", "longitude": "144.961518", "Group": "Universities"}, {"Name": "TEC Foundation Studies", "Description": "Higher Education", "Suburb": "Carlton", "latitude": "-37.80076077", "longitude": "144.9621322", "Group": "Universities"}, {"Name": "University of Melbourne Department of Public Health & Community Medicine", "Description": "Higher Education", "Suburb": "Carlton", "latitude": "-37.80104623", "longitude": "144.9589341", "Group": "Universities"}, {"Name": "University of Melbourne School of Physiotheraphy", "Description": "Higher Education", "Suburb": "Carlton", "latitude": "-37.80104623", "longitude": "144.9589341", "Group": "Universities"}, {"Name": "University of Melbourne Faculty of Music", "Description": "Higher Education", "Suburb": "Carlton", "latitude": "-37.80047114", "longitude": "144.9590108", "Group": "Universities"}, {"Name": "University of Melbourne Faculty of Music", "Description": "Higher Education", "Suburb": "Carlton", "latitude": "-37.80062951", "longitude": "144.9589802", "Group": "Universities"}, {"Name": "The Royal Australian & New Zealand College of Obstetricians & Gynaecologists", "Description": "Higher Education", "Suburb": "East Melbourne", "latitude": "-37.80994026", "longitude": "144.9825772", "Group": "Universities"}, {"Name": "Victorian College of The Arts", "Description": "Higher Education", "Suburb": "Southbank", "latitude": "-37.82519306", "longitude": "144.967545", "Group": "Universities"}, {"Name": "RMIT University", "Description": "Higher Education", "Suburb": "Melbourne (CBD)", "latitude": "-37.80805077", "longitude": "144.9625918", "Group": "Universities"}, {"Name": "Trinity College TEC", "Description": "Higher Education", "Suburb": "Carlton", "latitude": "-37.80115001", "longitude": "144.9634054", "Group": "Universities"}, {"Name": "The University of Melbourne", "Description": "Higher Education", "Suburb": "Carlton", "latitude": "-37.80096315", "longitude": "144.9650706", "Group": "Universities"}, {"Name": "Centre for the Study of Health & Society", "Description": "Higher Education", "Suburb": "Carlton", "latitude": "-37.80041825", "longitude": "144.9618427", "Group": "Universities"}, {"Name": "Koori Health Research", "Description": "Higher Education", "Suburb": "Carlton", "latitude": "-37.80041825", "longitude": "144.9618427", "Group": "Universities"}, {"Name": "Department of Defence", "Description": "Higher Education", "Suburb": "Melbourne (CBD)", "latitude": "-37.81022045", "longitude": "144.958212", "Group": "Universities"}, {"Name": "The University of Melbourne", "Description": "Higher Education", "Suburb": "Carlton", "latitude": "-37.80240996", "longitude": "144.960034", "Group": "Universities"}, {"Name": "The University of Melbourne", "Description": "Higher Education", "Suburb": "Carlton", "latitude": "-37.80023307", "longitude": "144.9592807", "Group": "Universities"}, {"Name": "Trinity College - Trinity Foundation Studies", "Description": "Higher Education", "Suburb": "Carlton", "latitude": "-37.80051573", "longitude": "144.9620195", "Group": "Universities"}, {"Name": "Melbourne University Private", "Description": "Higher Education", "Suburb": "Carlton", "latitude": "-37.80046466", "longitude": "144.9615782", "Group": "Universities"}, {"Name": "Grattan Institute ", "Description": "Higher Education", "Suburb": "Carlton", "latitude": "-37.80096315", "longitude": "144.9650706", "Group": "Universities"}, {"Name": "The Australian National University", "Description": "Higher Education", "Suburb": "Melbourne (CBD)", "latitude": "-37.81355886", "longitude": "144.9718392", "Group": "Universities"}, {"Name": "Victorian Institute of Teaching", "Description": "Higher Education", "Suburb": "Melbourne (CBD)", "latitude": "-37.81550891", "longitude": "144.9567557", "Group": "Universities"}, {"Name": "Institute of Chartered Accountants in Australia", "Description": "Higher Education", "Suburb": "Melbourne (CBD)", "latitude": "-37.81571393", "longitude": "144.9561073", "Group": "Universities"}, {"Name": "Idea", "Description": "Higher Education", "Suburb": "Melbourne (CBD)", "latitude": "-37.8144328", "longitude": "144.9636622", "Group": "Universities"}, {"Name": "The Australian College of Travel and Hospitality", "Description": "Higher Education", "Suburb": "Melbourne (CBD)", "latitude": "-37.81361669", "longitude": "144.9661578", "Group": "Universities"}, {"Name": "RMIT University", "Description": "Higher Education", "Suburb": "Melbourne (CBD)", "latitude": "-37.81361669", "longitude": "144.9661578", "Group": "Universities"}, {"Name": "St Peter Institute", "Description": "Higher Education", "Suburb": "Melbourne (CBD)", "latitude": "-37.81386024", "longitude": "144.9654075", "Group": "Universities"}, {"Name": "The University of Melbourne", "Description": "Higher Education", "Suburb": "Carlton", "latitude": "-37.80139416", "longitude": "144.959262", "Group": "Universities"}, {"Name": "Faculty of Economics and Commerce (University of Melbourne)", "Description": "Higher Education", "Suburb": "Carlton", "latitude": "-37.80117842", "longitude": "144.961518", "Group": "Universities"}, {"Name": "Trinity College - Foundation Studies", "Description": "Higher Education", "Suburb": "Parkville", "latitude": "-37.79607611", "longitude": "144.957467", "Group": "Universities"}, {"Name": "Trinity College - Foundation Studies Centre", "Description": "Higher Education", "Suburb": "Parkville", "latitude": "-37.79596539", "longitude": "144.9574793", "Group": "Universities"}, {"Name": "Victoria University of Technology", "Description": "Higher Education", "Suburb": "Melbourne (CBD)", "latitude": "-37.81755508", "longitude": "144.9640591", "Group": "Universities"}]
